"code UAI";"n° SIRET";"type d'établissement";nom;sigle;statut;tutelle;université;"boîte postale";adresse;CP;commune;"commune (COG)";cedex;téléphone;arrondissement;département;académie;région;"région (COG)";"longitude (X)";"latitude (Y)";"début portes ouvertes";"fin portes ouvertes";"commentaires portes ouvertes";"lien site onisep.fr"
0594854F;33830238300017;"Autre établissement du supérieur";"Ecole internationale Tunon";;"Privé hors contrat";;;;"57 rue de Paris";59000;Lille;59350;;"03 20 57 79 30";;Nord;Lille;Hauts-de-France;32;3.067351;50.6351282;;;;www.onisep.fr/http/redirection/etablissement/identifiant/241
0573247V;;"Autre établissement du supérieur";"Institut supérieur national de l'artisanat - Chambre de métiers et de l'Artisanat en Moselle";ISNA;Consulaire;"Ministère chargé de l'Économie et des Finances";;"CP 97803";"5 boulevard de la Défense";57078;Metz;57463;"Cedex 03";"03 87 39 31 26";;Moselle;Nancy-Metz;Grand-Est;44;6.2144293;49.1068071;01/03/2019;30/03/2019;"mars 2019";www.onisep.fr/http/redirection/etablissement/identifiant/382
0596292U;;"Autre établissement du supérieur";"Institut national des techniques économiques et comptables";"INTEC CNAM";Public;"Ministère chargé de l'Enseignement supérieur de la Recherche et de l'Innovation";"Conservatoire national des arts et métiers";;"8 boulevard Louis XIV";59044;Lille;59350;Cedex;"03 20 60 65 68";;Nord;Lille;Hauts-de-France;32;3.0715542;50.628479;;;;www.onisep.fr/http/redirection/etablissement/identifiant/603
0754940M;;"Autre établissement du supérieur";"Académie internationale de management - Hotel & Tourism Management Academy";AIM;"Privé hors contrat";;;;"2 rue Charbonnel";75013;Paris;75113;;"01 45 75 65 75";13;Paris;Paris;Ile-de-France;11;2.3432867865082;48.822711680036;;;;www.onisep.fr/http/redirection/etablissement/identifiant/885
0492062A;;"Autre établissement du supérieur";Ircom;;"Privé hors contrat";;;"CS 10059";"23 rue Edouard Guinel";49136;"Les Ponts-de-Cé";49246;;"02 41 79 64 64";;Maine-et-Loire;Nantes;"Pays de la Loire";52;-0.5333231;47.443078;02/02/2019;02/02/2019;"de 14h à 17h et le 06/04/2019 de 14h à 17h (pour les Masters)";www.onisep.fr/http/redirection/etablissement/identifiant/1179
0332237C;;"Autre établissement du supérieur";"CRFCB Médiaquitaine";CRFCB;Public;"Ministère chargé de l'Enseignement supérieur de la Recherche et de l'Innovation";"Université de Bordeaux";"CS 61292";"146 rue Léo Saignat";33076;Bordeaux;33063;Cedex;"05 47 30 43 40";;Gironde;Bordeaux;Nouvelle-Aquitaine;75;-0.57917999999995;44.837789;;;;www.onisep.fr/http/redirection/etablissement/identifiant/1267
0142263J;;"Autre établissement du supérieur";ICARE;;"Privé hors contrat";;;;"147 route de la délivrande";14000;Caen;14118;;"02 31 94 60 60";;Calvados;Caen;Normandie;28;-0.3587073;49.1993729;27/01/2018;27/01/2018;"le 17/02/2018 et le 17/03/2018 de 9h30 à 12h30";www.onisep.fr/http/redirection/etablissement/identifiant/1641
0130235K;;"Autre établissement du supérieur";"Institut des métiers du notariat";IMN;"Privé reconnu";"Ministère de la Justice";;;"25 avenue Poncet";13090;Aix-en-Provence;13001;;"04 42 24 82 34";;Bouches-du-Rhône;Aix-Marseille;"Provence-Alpes-Côte d'Azur";93;5.36978;43.296482;;;;www.onisep.fr/http/redirection/etablissement/identifiant/1783
0352548E;;"Autre établissement du supérieur";"Ecofac Business School";;"Privé hors contrat";;;;"32 rue du Chêne Germain";35510;Cesson-Sévigné;35051;;"02 23 30 00 11";;Ille-et-Vilaine;Rennes;Bretagne;53;-1.6218875;48.1290723;27/01/2018;27/01/2018;"de 9h à 17h, le 21/02/2018 de 18h à 20h30, le 17/03/2018 de 9h à 14h";www.onisep.fr/http/redirection/etablissement/identifiant/2321
0130235K;;"Autre établissement du supérieur";"Centre de formation professionnelle des notaires";CFPN;"Privé reconnu";"Ministère de la Justice";;;"25 avenue Poncet";13090;Aix-en-Provence;13001;;"04 42 24 82 30";;Bouches-du-Rhône;Aix-Marseille;"Provence-Alpes-Côte d'Azur";93;5.3824806;43.279008;;;;www.onisep.fr/http/redirection/etablissement/identifiant/2366
0342005V;35173431400021;"Autre établissement du supérieur";EPICOM;;"Privé hors contrat";;;;"448 route de Nîmes";34170;Castelnau-le-Lez;34057;;"04 67 72 03 04";;Hérault;Montpellier;Occitanie;76;3.9266729;43.6361987;;;;www.onisep.fr/http/redirection/etablissement/identifiant/2595
0672119P;33830238300132;"Autre établissement du supérieur";"Ecole internationale Tunon";;"Privé hors contrat";;;;"14 place de la gare";67000;Strasbourg;67482;;"03 88 32 45 38";;Bas-Rhin;Strasbourg;Grand-Est;44;7.7349244;48.5849;;;;www.onisep.fr/http/redirection/etablissement/identifiant/3077
0641772D;33882972400040;"Autre établissement du supérieur";"Talis business school - Bayonne";"Talis BS";"Privé hors contrat";;;;"15 rue Vauban";64100;Bayonne;64102;;"05 59 55 89 55";;Pyrénées-Atlantiques;Bordeaux;Nouvelle-Aquitaine;75;-1.479595;43.494992;31/01/2018;31/01/2018;"de 14h à17h et les 14/02/2018, 14/03/2018, 18/04/2018 de 14h à 17h";www.onisep.fr/http/redirection/etablissement/identifiant/3549
0542351M;;"Autre établissement du supérieur";"Centre de formation professionnelle notariale";;"Privé reconnu";"Ministère de la Justice";;;"22 rue de la Ravinelle";54000;Nancy;54395;;"03 83 35 83 55";;Meurthe-et-Moselle;Nancy-Metz;Grand-Est;44;6.1737132;48.6940544;;;;www.onisep.fr/http/redirection/etablissement/identifiant/3687
0631852W;33864542700026;"Autre établissement du supérieur";"Groupe formation systèmes";GFS;"Privé hors contrat";;;;"4 place Charles de Gaulle";63400;Chamalières;63075;;"04 73 19 53 00";;Puy-de-Dôme;Clermont-Ferrand;Auvergne-Rhône-Alpes;84;3.0623552;45.7746365;17/05/2018;17/05/2018;"de 16h à 19h; le 11/07/2018 de 14h à 18h";www.onisep.fr/http/redirection/etablissement/identifiant/3862
0133230R;;"Autre établissement du supérieur";"Institut supérieur d'études comptables";ISEC;Public;"Ministère chargé de l'Enseignement supérieur de la Recherche et de l'Innovation";"Aix-Marseille Université";;"2 rue Jean Andréani";13090;Aix-en-Provence;13001;;"04 42 91 31 20";;Bouches-du-Rhône;Aix-Marseille;"Provence-Alpes-Côte d'Azur";93;5.4365197;43.5123137;;;;www.onisep.fr/http/redirection/etablissement/identifiant/4123
0442111F;;"Autre établissement du supérieur";"Ecole internationale Tunon";;"Privé hors contrat";;;;"4 chemin de la Chatterie";44800;Saint-Herblain;44162;;"02 51 82 25 25";;Loire-Atlantique;Nantes;"Pays de la Loire";52;-1.5715468;47.2123245;20/06/2018;20/06/2018;;www.onisep.fr/http/redirection/etablissement/identifiant/4255
0133213X;;"Autre établissement du supérieur";"Ecole supérieure de commerce et d'administration des entreprises du tourisme";ESCAET;"Privé hors contrat";;;;"6 avenue de Grassi";13100;Aix-en-Provence;13001;;"04 42 96 64 97";;Bouches-du-Rhône;Aix-Marseille;"Provence-Alpes-Côte d'Azur";93;5.4441347;43.5326236;25/11/2017;25/11/2017;"de 14 h à 18 h";www.onisep.fr/http/redirection/etablissement/identifiant/4731
0596351H;39955313000010;"Autre établissement du supérieur";EFFICOM;;"Privé hors contrat";;;;"159-161 boulevard de la liberté";59000;Lille;59350;;"03 20 15 16 77";;Nord;Lille;Hauts-de-France;32;3.0544183;50.6335767;09/12/2017;09/12/2017;"le 20/01/2018, le 03/03/2018, le 05/05/2018 et le 16/06/2018 de 10h à 17h";www.onisep.fr/http/redirection/etablissement/identifiant/4931
0061929P;;"Autre établissement du supérieur";"Ecole internationale Tunon";;"Privé hors contrat";;;;"150 boulevard des Jardiniers - Hibiscus Park";6200;Nice;06088;;"04 93 13 85 80";;Alpes-Maritimes;Nice;"Provence-Alpes-Côte d'Azur";93;7.2747397;43.70392;27/01/2018;27/01/2018;"de 10 h à 16h ; autre porte ouverte le 10 février 2018";www.onisep.fr/http/redirection/etablissement/identifiant/5078
0340138R;;"Autre établissement du supérieur";"Institut des métiers du notariat";IMN;"Privé reconnu";"Ministère de la Justice";;;"565 avenue des Apothicaires";34196;Montpellier;34172;"Cedex 05";"04 67 54 16 38";;Hérault;Montpellier;Occitanie;76;3.8362957;43.6427135;;;;www.onisep.fr/http/redirection/etablissement/identifiant/5861
0640187F;41468497700013;"Autre établissement du supérieur";"Institut d'études commerciales et de gestion";IEC;"Privé hors contrat";;;"BP 836";"17 rue du Maréchal Joffre";64008;Pau;64445;Cedex;"05 59 27 34 03";;Pyrénées-Atlantiques;Bordeaux;Nouvelle-Aquitaine;75;-0.3704958;43.295716;26/06/2018;26/06/2018;;www.onisep.fr/http/redirection/etablissement/identifiant/6099
0721580B;;"Autre établissement du supérieur";"Ecole professionnelle du commerce des réseaux automobiles";EPCRA;Consulaire;"Chambre de commerce et d'industrie";;;"132 rue Henri Champion";72100;"Le Mans";72181;;"02 43 84 01 32";;Sarthe;Nantes;"Pays de la Loire";52;0.234424;47.9795694;24/03/2018;24/03/2018;"de 9h à 17h";www.onisep.fr/http/redirection/etablissement/identifiant/6394
0752139T;;"Autre établissement du supérieur";"IPC - Facultés libres de philosophie et de psychologie";;"Privé reconnu";"Ministère chargé de l'Enseignement supérieur de la Recherche et de l'Innovation";;;"70 avenue Denfert-Rochereau";75014;Paris;75114;;"01 43 35 38 50";14;Paris;Paris;Ile-de-France;11;2.3357618;48.8378739;;;;www.onisep.fr/http/redirection/etablissement/identifiant/6515
0673044V;;"Autre établissement du supérieur";"Eco-conseil . Institut européen pour le conseil en environnement";;"Privé reconnu";;;;"7 rue Goethe";67000;Strasbourg;67482;;"03 88 60 16 19";;Bas-Rhin;Strasbourg;Grand-Est;44;7.7636821;48.58527;;;;www.onisep.fr/http/redirection/etablissement/identifiant/6790
0442674T;;"Autre établissement du supérieur";"École nationale vétérinaire, agroalimentaire et de l'alimentation de Nantes-Atlantique Cursus Vétérinaire";ONIRIS;Public;"Ministère de l'Agriculture et de l'Alimentation";;"BP 40706";"la Chantrerie";44307;Nantes;44109;"Cedex 03";"02 40 68 77 77";;Loire-Atlantique;Nantes;"Pays de la Loire";52;-1.522014;47.288341;;;;www.onisep.fr/http/redirection/etablissement/identifiant/7104
0342207P;45306605200011;"Autre établissement du supérieur";"Ecole de la haute finance établissement privé d'enseignement technique";;"Privé hors contrat";;;;"70 rue Joseph Alois Schumpeter";34470;Pérols;34198;;"04 67 60 60 45";;Hérault;Montpellier;Occitanie;76;3.9366332;43.5809681;;;;www.onisep.fr/http/redirection/etablissement/identifiant/7491
0541250R;;"Autre établissement du supérieur";"MEDIAL centre régional de formation aux carrières des bibliothèques";CRFCB;Public;"Ministère chargé de l'Enseignement supérieur de la Recherche et de l'Innovation";"Université de Lorraine";;"2 ter boulevard Charlemagne";54052;Nancy;54395;;"03 72 74 04 16";;Meurthe-et-Moselle;Nancy-Metz;Grand-Est;44;6.1624513;48.6821741;17/02/2018;17/02/2018;;www.onisep.fr/http/redirection/etablissement/identifiant/7759
0861345V;;"Autre établissement du supérieur";"École du Centre Ouest des avocats";ECOA;Public;"Ministère de la Justice";;;"9 boulevard du Grand Cerf";86000;Poitiers;86194;Cedex;"05 49 88 22 11";;Vienne;Poitiers;Nouvelle-Aquitaine;75;0.3338123;46.5822947;;;;www.onisep.fr/http/redirection/etablissement/identifiant/8043
0694315R;32922456200093;"Autre établissement du supérieur";"Institut supérieur de communication et de publicité";ISCOM;"Privé hors contrat";;;;"22 boulevard des Tchécoslovaques";69007;Lyon;69387;;"04 72 91 36 04";07;Rhône;Lyon;Auvergne-Rhône-Alpes;84;4.862554;45.759085;;;;www.onisep.fr/http/redirection/etablissement/identifiant/8587
0672866B;32922456200184;"Autre établissement du supérieur";"Pigier Performance";;"Privé hors contrat";;;;"15 rue des Magasins";67000;Strasbourg;67482;;"03 88 37 59 00";;Bas-Rhin;Strasbourg;Grand-Est;44;7.7400627;48.5900101;;;;www.onisep.fr/http/redirection/etablissement/identifiant/8797
0691506M;;"Autre établissement du supérieur";"Faculté de philosophie et de sciences humaines";;"Privé reconnu";;"Institut catholique de Lyon";;"23 place Carnot";69286;Lyon;69382;"Cedex 02";"04 72 32 50 97";02;Rhône;Lyon;Auvergne-Rhône-Alpes;84;4.8269596;45.7514266;10/03/2018;10/03/2018;"de 9h à 17h, et le 21/04/2018 de 9h à 13h";www.onisep.fr/http/redirection/etablissement/identifiant/8826
0383293Y;;"Autre établissement du supérieur";"CFA AFTRAL";;"Privé hors contrat";;;"BP 7";"rue des Saphirs";38280;Villette-d'Anthon;38557;;"04 72 02 58 58";;Isère;Grenoble;Auvergne-Rhône-Alpes;84;5.134708;45.788955;;;;www.onisep.fr/http/redirection/etablissement/identifiant/8929
9720818G;;"Autre établissement du supérieur";"Service Universitaire à la Formation Continue";SUFC;Public;"Ministère chargé de l'Enseignement supérieur de la Recherche et de l'Innovation";"Université des Antilles";"BP 7209";"Campus de Schoelcher";97271;Schoelcher;97229;Cedex;"05 96 72 73 33";;Martinique;Martinique;Martinique;2;-61.1024569;14.6245877;;;;www.onisep.fr/http/redirection/etablissement/identifiant/9186
0312211K;38310805700035;"Autre établissement du supérieur";"Institut supérieur technique d'enseignement et de formation";ISTEF;"Privé hors contrat";;;;"24 rue de l'Industrie";31685;Toulouse;31555;;"05 34 41 53 90";;Haute-Garonne;Toulouse;Occitanie;76;1.451247;43.6057357;;;;www.onisep.fr/http/redirection/etablissement/identifiant/9501
0561487M;;"Autre établissement du supérieur";"Institut supérieur de formation de l'enseignement catholique";ISFEC;"Privé sous contrat";"Ministère chargé de l'Enseignement supérieur de la Recherche et de l'Innovation";;;"Le Vincin";56610;Arradon;56003;;"02 97 46 33 80";;Morbihan;Rennes;Bretagne;53;-2.8043566;47.6487542;17/02/2018;17/02/2018;"de 9h à 13h, le 07/04/2018 de 9h à 13h";www.onisep.fr/http/redirection/etablissement/identifiant/9879
0312353P;;"Autre établissement du supérieur";"École de journalisme de Toulouse EJT";EJT;"Privé hors contrat";;"Institut catholique de Toulouse";;"31 rue de la Fonderie";31068;Toulouse;31555;;"05 62 26 54 19";;Haute-Garonne;Toulouse;Occitanie;76;1.4431101;43.5954233;;;;www.onisep.fr/http/redirection/etablissement/identifiant/10163
0312765M;;"Autre établissement du supérieur";"ISTELI - Institut supérieur du transport et de la logistique internationale - groupe AFTRAL ISTELI";ISTELI;"Privé hors contrat";;;"BP 92048";"72 rue Edmond Rostand";31018;Toulouse;31555;"Cedex 02";"05 61 99 53 31";;Haute-Garonne;Toulouse;Occitanie;76;1.4584323;43.6439825;;;;www.onisep.fr/http/redirection/etablissement/identifiant/10230
0310153Y;;"Autre établissement du supérieur";"Ecole nationale vétérinaire de Toulouse";"INP ENVT";Public;"Ministère de l'Agriculture et de l'Alimentation";;"BP 87614";"23 chemin des Capelles";31076;Toulouse;31555;"Cedex 03";"05 61 19 38 02";;Haute-Garonne;Toulouse;Occitanie;76;1.3841861;43.5998219;;;;www.onisep.fr/http/redirection/etablissement/identifiant/10417
0730805D;38939545000015;"Autre établissement du supérieur";"Ecole technique privée ECORIS Chambéry";ECORIS;"Privé hors contrat";;;;"574 rue de Chantabord";73000;Chambéry;73065;;"04 79 69 28 17";;Savoie;Grenoble;Auvergne-Rhône-Alpes;84;5.8936539;45.5921826;;;;www.onisep.fr/http/redirection/etablissement/identifiant/10934
0350092K;;"Autre établissement du supérieur";"Ecole nationale supérieure maritime de Saint-Malo";ENSM;Public;"Ministère de la transition écologique et solidaire";;"BP 109";"4 rue de la Victoire";35412;Saint-Malo;35288;Cedex;"09 70 00 04 10";;Ille-et-Vilaine;Rennes;Bretagne;53;-2.0260557;48.6505817;20/01/2018;20/01/2018;"de 9h à 12h et de 13h30 à 16h30";www.onisep.fr/http/redirection/etablissement/identifiant/11138
0511697T;;"Autre établissement du supérieur";"Ecole internationale Tunon";;"Privé hors contrat";;;;"35 rue de Talleyrand";51100;Reims;51454;;"03 26 88 17 44";;Marne;Reims;Grand-Est;44;4.0289734;49.2556576;20/01/2018;20/01/2018;"de 10h à 17h";www.onisep.fr/http/redirection/etablissement/identifiant/11173
0061610T;32922456200267;"Autre établissement du supérieur";"Pigier Performance Nice";;"Privé hors contrat";;;;"150 boulevard des Jardiniers";6200;Nice;06088;;"04 93 29 83 33";;Alpes-Maritimes;Nice;"Provence-Alpes-Côte d'Azur";93;7.1923492;43.7102315;27/06/2018;27/06/2018;;www.onisep.fr/http/redirection/etablissement/identifiant/11320
0341820U;;"Autre établissement du supérieur";"Institut supérieur de communication et de publicité - la compagnie de formation";ISCOM;"Privé hors contrat";;;;"1702 rue de Saint Priest";34097;Montpellier;34172;;"04 67 10 57 74";;Hérault;Montpellier;Occitanie;76;3.8388411;43.6356622;;;;www.onisep.fr/http/redirection/etablissement/identifiant/11797
0341588S;;"Autre établissement du supérieur";"Ecole privée des sciences informatiques";EPSI;"Privé hors contrat";;;;"437 rue des Apothicaires";34090;Montpellier;34172;"Cedex 05";"04 67 04 20 01";;Hérault;Montpellier;Occitanie;76;3.8383058;43.6429784;;;;www.onisep.fr/http/redirection/etablissement/identifiant/11960
0753087Y;32368824200029;"Autre établissement du supérieur";"Institut européen de formation au tourisme";IEFT;"Privé hors contrat";;;;"20 bis jardins Boieldieu";92800;Puteaux;92062;;"01 43 70 39 32";17;Hauts-de-Seine;Versailles;Ile-de-France;11;2.3056459;48.8868387;19/05/2018;19/05/2018;"de 10h à 14h  ; autres portes ouvertes le 07/06/2018";www.onisep.fr/http/redirection/etablissement/identifiant/12295
0941869W;35068085600019;"Autre établissement du supérieur";"Ecole INFA";;"Privé hors contrat";;;;"5 - 9 rue Anquetil";94736;Nogent-sur-Marne;94052;Cedex;"01 45 14 64 00";;Val-de-Marne;Créteil;Ile-de-France;11;2.4886855;48.8422376;;;;www.onisep.fr/http/redirection/etablissement/identifiant/12577
0331646K;33851631300065;"Autre établissement du supérieur";"Talis business school - Bordeaux";"Talis BS";"Privé hors contrat";;;;"11-13 rue de Gironde";33000;Bordeaux;33063;;"05 57 22 42 42";;Gironde;Bordeaux;Nouvelle-Aquitaine;75;-0.55225241779101;44.86489040968;14/02/2018;14/02/2018;"à 14h, le 10/03/2018 à 10h, le 14/03/2018 à 14h, le 21/04 et le 07/07/2018 de 10h à 14h";www.onisep.fr/http/redirection/etablissement/identifiant/12842
0754129F;1875003800091;"Autre établissement du supérieur";"Ferrandi Paris, l'école française de gastronomie et de management hôtelier";Ferrandi;Consulaire;"Chambre de commerce et d'industrie";;;"28 rue de l'Abbé Grégoire";75006;Paris;75106;;"01 49 54 28 00";06;Paris;Paris;Ile-de-France;11;2.32554;48.847453;;;;www.onisep.fr/http/redirection/etablissement/identifiant/13215
0670178E;;"Autre établissement du supérieur";"Institut d'études politiques (Sciences Po Strasbourg)";IEP;Public;"Ministère chargé de l'Enseignement supérieur de la Recherche et de l'Innovation";"Université de Strasbourg";;"47 avenue de la Forêt-Noire";67082;Strasbourg;67482;Cedex;"03 68 85 83 75";;Bas-Rhin;Strasbourg;Grand-Est;44;7.7705179;48.584008;17/02/2018;17/02/2018;;www.onisep.fr/http/redirection/etablissement/identifiant/13498
0180877F;18180001200021;"Autre établissement du supérieur";ESTACOM;;Consulaire;"Chambre de commerce et d'industrie";;"BP 54";"25 rue Louis Mallet";18001;Bourges;18033;Cedex;"02 48 67 55 51";;Cher;Orléans-Tours;"Centre-Val de Loire";24;2.3868792;47.0789223;17/02/2018;17/02/2018;"de 10h à 17h";www.onisep.fr/http/redirection/etablissement/identifiant/14049
0690173N;;"Autre établissement du supérieur";"Institut d'études politiques (Sciences Po Lyon)";IEP;Public;"Ministère chargé de l'Enseignement supérieur de la Recherche et de l'Innovation";"Université Lumière - Lyon 2";;"14 avenue Berthelot";69365;Lyon;69387;"Cedex 07";"04 37 28 38 00";07;Rhône;Lyon;Auvergne-Rhône-Alpes;84;4.836028;45.747026;;;;www.onisep.fr/http/redirection/etablissement/identifiant/14823
0352317D;;"Autre établissement du supérieur";"Institut d'études politiques (Sciences Po Rennes)";IEP;Public;"Ministère chargé de l'Enseignement supérieur de la Recherche et de l'Innovation";;;"104 Boulevard Duchesse Anne";35700;Rennes;35238;Cedex;"02 99 84 39 39";;Ille-et-Vilaine;Rennes;Bretagne;53;-1.668277;48.120621;10/02/2018;10/02/2018;"de 9h à 17h";www.onisep.fr/http/redirection/etablissement/identifiant/14991
0691502H;;"Autre établissement du supérieur";"Faculté de droit";;"Privé reconnu";;"Institut catholique de Lyon";;"10 place des Archives";69002;Lyon;69382;;"04 72 32 58 99";02;Rhône;Lyon;Auvergne-Rhône-Alpes;84;4.826411;45.746622;10/03/2018;10/03/2018;"de 9h à 17h et le 21/04/2018 de 9h à 13h";www.onisep.fr/http/redirection/etablissement/identifiant/15000
0693767V;;"Autre établissement du supérieur";"ISCPA Lyon - Institut supérieur des médias";ISCPA;"Privé hors contrat";;;"CP 606";"47 rue Sergent Michel Berthet";69258;Lyon;69389;"Cedex 09";"04 72 85 71 73";09;Rhône;Lyon;Auvergne-Rhône-Alpes;84;4.805467;45.768032;13/10/2018;13/10/2018;"le 24/11/2018, le 15/12/2018, le 26/01/2019, le 09/03/2019, le 13/04/2019, le 25/05/2019 et le 22/06/2019";www.onisep.fr/http/redirection/etablissement/identifiant/15247
0754939L;;"Autre établissement du supérieur";"SUPINFO - Ecole supérieure d'informatique de Paris";SUPINFO;"Privé reconnu";"Ministère chargé de l'Enseignement supérieur de la Recherche et de l'Innovation";;;"Tour Montparnasse 40ème étage";75010;Paris;75110;;"01 53 35 97 00";10;Paris;Paris;Ile-de-France;11;2.3522219;48.856614;;;;www.onisep.fr/http/redirection/etablissement/identifiant/15602
0783379Z;41266411200023;"Autre établissement du supérieur";"L'Institut des études comptables";"CEDEFI -LIDEC";"Privé reconnu";;;;"12 avenue des Prés";78059;Montigny-le-Bretonneux;78423;Cedex;"01 39 44 99 47";;Yvelines;Versailles;Ile-de-France;11;2.069502;48.770184;;;;www.onisep.fr/http/redirection/etablissement/identifiant/15648
0595778K;34514875300022;"Autre établissement du supérieur";"MAESTRIS Dunkerque";MAESTRIS;"Privé hors contrat";;;;"14 rue des Fusiliers Marins";59140;Dunkerque;59183;;"03 28 63 76 77";;Nord;Lille;Hauts-de-France;32;2.3723801;51.0340231;;;;www.onisep.fr/http/redirection/etablissement/identifiant/15988
0694060N;;"Autre établissement du supérieur";"Institut de l'environnement et des technologies (groupe IDRAC)";IET;"Privé hors contrat";;;"CP 607";"47 rue Sergent Berthet";69258;Lyon;69389;"Cedex 09";"04 72 85 72 24";09;Rhône;Lyon;Auvergne-Rhône-Alpes;84;4.805519;45.770445;;;;www.onisep.fr/http/redirection/etablissement/identifiant/16373
0292039J;;"Autre établissement du supérieur";"ELYTIS Business School";;"Privé hors contrat";;;;"2 rue Auguste Kervern";29200;Brest;29019;;"02 98 42 22 20";;Finistère;Rennes;Bretagne;53;-4.4895053;48.3982618;17/03/2018;17/03/2018;"de 10h à 17h";www.onisep.fr/http/redirection/etablissement/identifiant/16411
0142246R;;"Autre établissement du supérieur";"Institut Supérieur Professionnel de Normandie";ISPN;"Privé hors contrat";;;;"6 avenue du Maréchal Montgomery";14000;Caen;14118;;"02 31 93 09 12";;Calvados;Caen;Normandie;28;-0.38417670000001;49.1990921;14/12/2018;14/12/2018;"pour le site de Caen et le 21/12/2018 pour le site de Cherbourg";www.onisep.fr/http/redirection/etablissement/identifiant/16695
9711101V;;"Autre établissement du supérieur";Formates;;"Privé hors contrat";;;;"39 rue Achille René Boisneuf";97110;Pointe-à-Pitre;97120;;"05 90 90 26 11";;Guadeloupe;Guadeloupe;Guadeloupe;1;-61.529998779297;16.236000061035;;;;www.onisep.fr/http/redirection/etablissement/identifiant/16954
0754782R;;"Autre établissement du supérieur";"Ecole de formation professionnelle des Barreaux de la Cour d'appel de Paris";EFB;Public;"Ministère de la Justice";;;"1 rue Pierre-Antoine Berryer";92130;Issy-les-Moulineaux;92040;;"01 80 22 01 53";;Hauts-de-Seine;Versailles;Ile-de-France;11;2.266002;48.8323528;;;;www.onisep.fr/http/redirection/etablissement/identifiant/17289
0371670P;;"Autre établissement du supérieur";"Institut Supérieur de Formation de l'Enseignement Catholique";ISFEC;"Privé sous contrat";"Ministère chargé de l'Enseignement supérieur de la Recherche et de l'Innovation";;"CS 74123";"33 rue Blaise Pascal";37041;Tours;37261;"Cedex 1";"02 47 60 26 46";;Indre-et-Loire;Orléans-Tours;"Centre-Val de Loire";24;0.6934683;47.3874543;;;;www.onisep.fr/http/redirection/etablissement/identifiant/17301
0133810W;;"Autre établissement du supérieur";"IFC Méditerranée";IFC;"Privé hors contrat";;;;"513 avenue du Prado";13008;Marseille;13208;;"04 91 32 19 29";08;Bouches-du-Rhône;Aix-Marseille;"Provence-Alpes-Côte d'Azur";93;5.3799207;43.2649488;;;;www.onisep.fr/http/redirection/etablissement/identifiant/17610
0753567V;;"Autre établissement du supérieur";"Ecole supérieure de journalisme";ESJ;"Privé hors contrat";;;;"107 rue de Tolbiac";75013;Paris;75113;;"01 45 70 73 37";13;Paris;Paris;Ile-de-France;11;2.364054;48.82658;;;;www.onisep.fr/http/redirection/etablissement/identifiant/17942
0693768W;38827986100016;"Autre établissement du supérieur";"Cours Galien";;"Privé hors contrat";;;;"19 rue des Tuiliers";69003;Lyon;69383;;"04 81 65 33 00";03;Rhône;Lyon;Auvergne-Rhône-Alpes;84;4.8655824;45.7481997;;;;www.onisep.fr/http/redirection/etablissement/identifiant/18490
0690193K;;"Autre établissement du supérieur";"VetAgro Sup - Campus vétérinaire de Lyon";;Public;"Ministère de l'Agriculture et de l'Alimentation";;;"1 avenue Bourgelat";69280;Marcy-l'Etoile;69127;;"04 78 87 25 25";;Rhône;Lyon;Auvergne-Rhône-Alpes;84;4.709203;45.790649;;;;www.onisep.fr/http/redirection/etablissement/identifiant/18798
0690646C;77564917100045;"Autre établissement du supérieur";"Carrel Ecole supérieure des métiers de la vente";;"Privé hors contrat";;;;"119 rue Boileau";69006;Lyon;69386;;"04 72 71 56 46";06;Rhône;Lyon;Auvergne-Rhône-Alpes;84;4.8496046;45.7659591;;;;www.onisep.fr/http/redirection/etablissement/identifiant/19094
0341319Z;;"Autre établissement du supérieur";"Institut Saint-Joseph (ISFEC)";ISFEC;"Privé sous contrat";"Ministère chargé de l'Enseignement supérieur de la Recherche et de l'Innovation";;"BP 3031";"2808 avenue des Moulins";34080;Montpellier;34172;;"04 67 03 49 99";;Hérault;Montpellier;Occitanie;76;3.8389959;43.6269471;;;;www.onisep.fr/http/redirection/etablissement/identifiant/19186
0762917H;35406929600045;"Autre établissement du supérieur";Form'avenir;;"Privé hors contrat";;;;"28 place Saint Marc";76000;Rouen;76540;;"02 35 70 05 05";;Seine-Maritime;Rouen;Normandie;28;1.1014923;49.4381304;25/11/2017;25/11/2017;"10h à 17h (autre date : 6/12/17 de 14h à 17h)";www.onisep.fr/http/redirection/etablissement/identifiant/19763
0596134X;;"Autre établissement du supérieur";"Centre de formation professionnelle notariale";CFPN;"Privé reconnu";"Ministère de la Justice";;;"9 rue de Puebla";59000;Lille;59350;;"03 28 38 86 26";;Nord;Lille;Hauts-de-France;32;3.057745;50.6333588;;;;www.onisep.fr/http/redirection/etablissement/identifiant/20020
0672592D;35091251500029;"Autre établissement du supérieur";"Ecole supérieure de management et de gestion";ESMG;"Privé hors contrat";;;;"12 rue Finkmatt";67000;Strasbourg;67482;;"03 88 22 65 08";;Bas-Rhin;Strasbourg;Grand-Est;44;7.7475751;48.5893466;;;;www.onisep.fr/http/redirection/etablissement/identifiant/20101
0333021E;;"Autre établissement du supérieur";"Institut supérieur de formation de l'enseignement catholique d'Aquitaine";ISFEC;"Privé sous contrat";"Ministère chargé de l'Enseignement supérieur de la Recherche et de l'Innovation";;;"54 boulevard Godard";33000;Bordeaux;33063;;"05 56 39 81 06";;Gironde;Bordeaux;Nouvelle-Aquitaine;75;-0.5883971;44.8605289;30/05/2018;30/05/2018;;www.onisep.fr/http/redirection/etablissement/identifiant/20206
0754039H;;"Autre établissement du supérieur";"Ecole supérieure de gestion et expertise comptable";ENGDE;"Privé hors contrat";;;;"8-14 passage de la main d'or";75011;Paris;75111;;"01 42 74 54 84";11;Paris;Paris;Ile-de-France;11;2.3779363;48.8518104;;;;www.onisep.fr/http/redirection/etablissement/identifiant/20324
0141529L;;"Autre établissement du supérieur";"Institut supérieur de formation de l'enseignement catholique de Normandie (ISFEC Normandie)";;"Privé sous contrat";"Ministère chargé de l'Enseignement supérieur de la Recherche et de l'Innovation";;;"535 boulevard de la Paix";14200;Hérouville-Saint-Clair;14327;;"02 31 06 14 50";;Calvados;Caen;Normandie;28;-0.3253971;49.1955009;;;;www.onisep.fr/http/redirection/etablissement/identifiant/20713
0142321X;;"Autre établissement du supérieur";"Ecole supérieure des formations administratives et commerciales -ESFAC-groupe AIFCC";ESFAC;Consulaire;"Chambre de commerce et d'industrie";;"BP 65036";"7 rue du Professeur Rousselot";14077;Caen;14118;"Cedex 05";"02 31 53 61 17";;Calvados;Caen;Normandie;28;-0.3593636;49.2067864;27/01/2018;27/01/2018;"de 10h à 16h et le 24/03/2018 de 9h à 13h";www.onisep.fr/http/redirection/etablissement/identifiant/20716
0332963S;;"Autre établissement du supérieur";MMPP;;"Privé hors contrat";;;;"29 rue de l'Ecole normale";33200;Bordeaux;33063;;"05 56 08 70 70";;Gironde;Bordeaux;Nouvelle-Aquitaine;75;-0.6054872;44.8480261;;;;www.onisep.fr/http/redirection/etablissement/identifiant/20761
0753082T;32502077400015;"Autre établissement du supérieur";"Institut supérieur de ressources informatiques";IRIS;"Privé hors contrat";;;;"6/8 impasse des deux cousins";75017;Paris;75117;;"01 44 01 86 70";17;Paris;Paris;Ile-de-France;11;2.30092;48.885297;16/06/2018;16/06/2018;"de 10 h à 15 h 30 ; autres portes ouvertes les samedi 07/07/2018, 01/09/2018, 08/09/2018 et 22/09/2018 de 10 h à 15 h 30 et les mercredi 27/06/2018, 18/07/2018, 12/09/2018 et 26/09/2018 de  17 h à 20 h";www.onisep.fr/http/redirection/etablissement/identifiant/20839
0755324E;;"Autre établissement du supérieur";"ISCPA Paris - Institut des médias";ISCPA;"Privé hors contrat";;;;"12 rue Alexandre Parodi";75010;Paris;75110;;"01 80 97 65 80";10;Paris;Paris;Ile-de-France;11;2.3656;48.879745;;;;www.onisep.fr/http/redirection/etablissement/identifiant/20940
0741622L;38939545000023;"Autre établissement du supérieur";"Ecole technique privée ECORIS Annecy";ECORIS;"Privé hors contrat";;;;"9 avenue du Pré de Challes";74000;Annecy;74010;;"04 50 09 27 98";;Haute-Savoie;Grenoble;Auvergne-Rhône-Alpes;84;6.167753;45.92815;;;;www.onisep.fr/http/redirection/etablissement/identifiant/21129
0212174Z;;"Autre établissement du supérieur";"Sciences Po Paris, campus européen de Dijon";IEP;Public;"Ministère chargé de l'Enseignement supérieur de la Recherche et de l'Innovation";;;"14 avenue Victor Hugo";21000;Dijon;21231;;"03 80 58 99 58";;Côte-d'Or;Dijon;Bourgogne-Franche-Comté;27;5.0300778;47.3262746;18/11/2017;18/11/2017;"de 13h à 18h";www.onisep.fr/http/redirection/etablissement/identifiant/21253
0755085V;;"Autre établissement du supérieur";"Ecole supérieure d'ingénierie informatique (groupe ESIEA)";;"Privé hors contrat";;;;"74 bis avenue Maurice Thorez";94200;Ivry-sur-Seine;94041;;"01 43 90 21 21";;Val-de-Marne;Créteil;Ile-de-France;11;2.378503;48.8146761;;;;www.onisep.fr/http/redirection/etablissement/identifiant/21422
0596699L;;"Autre établissement du supérieur";"École supérieure de design et de merchandising CEPRECO";ESDM;Consulaire;"Chambre de commerce et d'industrie";;"CS 50145";"45 rue André Chénier";59053;Roubaix;59512;"Cedex 01";"03 20 28 29 34 - 03 20 24 23 23";;Nord;Lille;Hauts-de-France;32;3.1702138;50.6850084;27/01/2018;27/01/2018;"de 10h à 17h et le 17 mars de 9h30 à 12h30";www.onisep.fr/http/redirection/etablissement/identifiant/21550
0753564S;;"Autre établissement du supérieur";"Ecole des Hautes Etudes Internationales et Politiques";HEIP;"Privé hors contrat";;;;"37 quai de Grenelle - Bâtiment Castor";75015;Paris;75115;;"01 84 14 03 29";15;Paris;Paris;Ile-de-France;11;2.2571275;48.844457;;;;www.onisep.fr/http/redirection/etablissement/identifiant/21731
0596770N;48017681700025;"Autre établissement du supérieur";ISCOM;;"Privé hors contrat";;;;"57 rue Pierre Mauroy";59000;Lille;59350;;"03 28 36 16 10";;Nord;Lille;Hauts-de-France;32;3.0674106;50.635126;20/01/2018;20/01/2018;"le 03/02/2018, le 03/03/2018 et le 14/04/2018, de 10h à 17h et le 19/05/2018 de 10h à 13h, réunions d'informations tous les mercredis à 14h";www.onisep.fr/http/redirection/etablissement/identifiant/21820
0754440U;;"Autre établissement du supérieur";"Institut des techniques informatiques et commerciales";ITIC;"Privé hors contrat";;;;"190 bis boulevard de Charonne";75020;Paris;75120;;"01 43 73 20 40";20;Paris;Paris;Ile-de-France;11;2.392237;48.857711;;;;www.onisep.fr/http/redirection/etablissement/identifiant/21824
0442605T;;"Autre établissement du supérieur";"Ecole supérieure des professions immobilières - campus Nantes";ESPI;"Privé hors contrat";;;"CS 62357";"285 rue Louis de Broglie";44323;Nantes;44109;"Cedex 3";"02 40 49 87 46";;Loire-Atlantique;Nantes;"Pays de la Loire";52;-1.5584425;47.2613192;;;;www.onisep.fr/http/redirection/etablissement/identifiant/21892
0752099Z;32800778600010;"Autre établissement du supérieur";EPH;;"Privé hors contrat";;;;"15 avenue de la Grande Armée";75116;Paris;75116;;"01 42 61 58 51";16;Paris;Paris;Ile-de-France;11;2.328864;48.870088;;;;www.onisep.fr/http/redirection/etablissement/identifiant/21961
0783545E;;"Autre établissement du supérieur";"Ecole supérieure Business, Finance et IT";ENSUP;"Privé hors contrat";;;;"1 bis avenue du 8 mai 1945";78280;Guyancourt;78297;;"01 61 38 05 75";;Yvelines;Versailles;Ile-de-France;11;2.044744;48.786707;;;;www.onisep.fr/http/redirection/etablissement/identifiant/22214
0942129D;;"Autre établissement du supérieur";"École pour l'informatique et les nouvelles technologies";EPITECH;"Privé hors contrat";;;;"24 rue Pasteur";94270;"Le Kremlin-Bicêtre";94043;;"01 44 08 01 05";;Val-de-Marne;Créteil;Ile-de-France;11;2.3629963;48.8153973;25/11/2017;14/04/2018;"de 9 h à 17 h autres portes ouvertes : le samedi 16 décembre 2017, le samedi 27 janvier 2018 , le samedi 17 février 2018 , le samedi 17 Mars 2018 , le Samedi 14 Avril 2018";www.onisep.fr/http/redirection/etablissement/identifiant/22452
0694089V;43261313100023;"Autre établissement du supérieur";AFIP;;"Privé hors contrat";;;;"111-113 rue du 1er mars 1943";69100;Villeurbanne;69266;;"04 78 37 81 81";;Rhône;Lyon;Auvergne-Rhône-Alpes;84;4.8902912999999;45.7604537;27/01/2018;27/01/2018;"le 24/03/2018 et 26/05/2018 de 9h à 16h";www.onisep.fr/http/redirection/etablissement/identifiant/22547
0333212M;;"Autre établissement du supérieur";"École pour l'informatique et les nouvelles technologies";EPITECH;"Privé reconnu";;;;"85 rue du jardin public";33000;Bordeaux;33063;;"01 44 08 00 14";;Gironde;Bordeaux;Nouvelle-Aquitaine;75;-0.5720539;44.8324323;;;;www.onisep.fr/http/redirection/etablissement/identifiant/22574
0932455N;;"Autre établissement du supérieur";"HETIC, la grande école de l'internet";HETIC;"Privé hors contrat";;;;"27 bis rue du progrès";93100;Montreuil;93048;;"01 41 72 77 71";;Seine-Saint-Denis;Créteil;Ile-de-France;11;2.4212544;48.8519151;;;;www.onisep.fr/http/redirection/etablissement/identifiant/22717
0691509R;;"Autre établissement du supérieur";"Faculté de théologie";;"Privé reconnu";;"Institut catholique de Lyon";;"23 place Carnot";69288;Lyon;69382;"Cedex 02";"04 72 32 50 95";02;Rhône;Lyon;Auvergne-Rhône-Alpes;84;4.8269596;45.7514266;;;;www.onisep.fr/http/redirection/etablissement/identifiant/22726
0383384X;39176344800027;"Autre établissement du supérieur";"IDRAC Business School";IDRAC;"Privé reconnu";;;;"3 bis rue de la Condamine";38610;Gières;38179;;"04 76 09 15 72";;Isère;Grenoble;Auvergne-Rhône-Alpes;84;5.7779635;45.1875984;04/04/2018;04/04/2018;;www.onisep.fr/http/redirection/etablissement/identifiant/22805
0694118B;43248059800056;"Autre établissement du supérieur";"Cours Diderot";;"Privé hors contrat";;;;"23 rue Renan";69007;Lyon;69387;;"04 78 69 10 80";07;Rhône;Lyon;Auvergne-Rhône-Alpes;84;4.8418361;45.7484824;25/08/2018;25/08/2018;"01/09/2018, 08/09/2018, 15/09/2018, 22/09/2018";www.onisep.fr/http/redirection/etablissement/identifiant/22988
0673022W;;"Autre établissement du supérieur";"Ecole pour l'informatique et les nouvelles technologies";EPITECH;"Privé hors contrat";;;;"4 rue du Dôme";67000;Strasbourg;67482;;"01 44 08 00 12";;Bas-Rhin;Strasbourg;Grand-Est;44;7.7497343;48.5838217;;;;www.onisep.fr/http/redirection/etablissement/identifiant/23088
0133999B;;"Autre établissement du supérieur";"Ecole pour l'informatique et les nouvelles technologies";EPITECH;"Privé hors contrat";;;;"21 rue Mires";13002;Marseille;13202;;"01 44 08 01 37";02;Bouches-du-Rhône;Aix-Marseille;"Provence-Alpes-Côte d'Azur";93;5.3695308;43.3110916;;;;www.onisep.fr/http/redirection/etablissement/identifiant/23120
0490082Y;;"Autre établissement du supérieur";"Institut des métiers du notariat";"IMN Angers";"Privé reconnu";"Ministère de la Justice";;;"35 rue du château d'Orgemont";49000;Angers;49007;;"02 41 86 09 17";;Maine-et-Loire;Nantes;"Pays de la Loire";52;-0.54284830000006;47.448686;09/03/2019;09/03/2019;"de 09h à 15h";www.onisep.fr/http/redirection/etablissement/identifiant/23126
0342260X;;"Autre établissement du supérieur";"SUP' DE COM école supérieure de communication";"SUP DE COM";"Privé hors contrat";;;;"499 rue Croix Verte";34196;Montpellier;34172;5;"09 80 70 06 52";;Hérault;Montpellier;Occitanie;76;3.8390131;43.6469657;;;;www.onisep.fr/http/redirection/etablissement/identifiant/23277
0640096G;;"Autre établissement du supérieur";"3I Executive";3I;"Privé hors contrat";;;;"20/22 rue du Théâtre";75015;Paris;75115;;"01 45 78 56 23";15;Paris;Paris;Ile-de-France;11;2.3115511;48.8384651;;;;www.onisep.fr/http/redirection/etablissement/identifiant/23355
0442291B;32922456200507;"Autre établissement du supérieur";"Pigier performance";"PIGIER Perform";"Privé hors contrat";;;;"4 chemin de la Chatterie";44800;Saint-Herblain;44162;;"02 40 35 28 82";;Loire-Atlantique;Nantes;"Pays de la Loire";52;-1.6358785;47.2275707;08/12/2018;08/12/2018;"et le 02/02/2019";www.onisep.fr/http/redirection/etablissement/identifiant/23497
0530931Z;18530044900054;"Autre établissement du supérieur";"Institut d'informatique appliquée";IIA;Consulaire;;;;"5 boulevard de l'industrie";53940;Saint-Berthevin;53201;;"02 43 91 47 47";;Mayenne;Nantes;"Pays de la Loire";52;-0.9468069;48.3999166;16/03/2019;16/03/2019;;www.onisep.fr/http/redirection/etablissement/identifiant/23601
0841173U;43889508800013;"Autre établissement du supérieur";"IFC Avignon";IFC;"Privé hors contrat";;;;"250 rue du 12e rég. de zouaves";84000;Avignon;84007;;"04 90 14 15 90";;Vaucluse;Aix-Marseille;"Provence-Alpes-Côte d'Azur";93;4.777485;43.9293993;17/03/2018;17/03/2018;;www.onisep.fr/http/redirection/etablissement/identifiant/23655
0754939L;50741052000013;"Autre établissement du supérieur";"SUPINFO Campus de Guadeloupe";SUPINFO;"Privé hors contrat";;;;"rue de la céramique";97139;"Les Abymes";97101;;"0811 570 600";;Guadeloupe;Guadeloupe;Guadeloupe;1;-61.502615;16.27395;;;;www.onisep.fr/http/redirection/etablissement/identifiant/23717
0561910X;;"Autre établissement du supérieur";"AFTEC Vannes";;"Privé hors contrat";;;;"14 rue Anita Conti";56000;Vannes;56260;;"02 97 47 66 51";;Morbihan;Rennes;Bretagne;53;-2.7820185;47.667361;13/12/2017;13/12/2017;"de 14h à 18h, le 27/01/2018 de 9h30 à 17h, le 07/02/2018 de 14h à 18h, le 23/03/2018 de 18h à 20h30, le 24/03/2018 de 9h30 à 17h, le 25/04/2018 de 14h à 18h, le 27/06/2018 de 14h à 18h, le 04/07/2018 de 9h30 à 17h";www.onisep.fr/http/redirection/etablissement/identifiant/23795
0542490N;50401301200027;"Autre établissement du supérieur";"Formaction Institut";;"Privé hors contrat";;;;"718 rue de la Gare";54710;Ludres;54328;;"03 54 95 57 41";;Meurthe-et-Moselle;Nancy-Metz;Grand-Est;44;6.1673682;48.6208635;;;;www.onisep.fr/http/redirection/etablissement/identifiant/23810
0672959C;41809994100035;"Autre établissement du supérieur";"IFIDE Sup Formation";;"Privé hors contrat";;;;"2 Rue Ettoré Bugatti";67201;Eckbolsheim;67118;;"03 88 10 83 84";;Bas-Rhin;Strasbourg;Grand-Est;44;7.6862794;48.5896423;;;;www.onisep.fr/http/redirection/etablissement/identifiant/23837
0755561M;;"Autre établissement du supérieur";"Ecole internationale de marketing du Luxe (Réseau GES)";EIML;"Privé hors contrat";;;;"21 rue Erard";75012;Paris;75112;;"01 44 68 10 07/08";12;Paris;Paris;Ile-de-France;11;2.3858775;48.8461666;;;;www.onisep.fr/http/redirection/etablissement/identifiant/23839
0611292Y;;"Autre établissement du supérieur";"Groupe ISF";;Consulaire;"Chambre de commerce et d'industrie";;;"pôle universitaire de Montfoulon";61250;Damigny;61143;;"02 33 80 84 00";;Orne;Caen;Normandie;28;0.0590041;48.4450915;02/03/2019;02/03/2019;"de 9 heures à 17 heures";www.onisep.fr/http/redirection/etablissement/identifiant/23848
0754022P;;"Autre établissement du supérieur";"ICS Bégué";;"Privé reconnu";;;;"40 rue du chemin vert";75010;Paris;75110;;"01 48 07 73 50";10;Paris;Paris;Ile-de-France;11;2.3611097;48.8727628;07/04/2018;07/04/2018;;www.onisep.fr/http/redirection/etablissement/identifiant/23887
0342053X;;"Autre établissement du supérieur";"Ecole supérieure de la coopération agricole et des industries alimentaires";"ESCAIA- COEPTIS";"Privé hors contrat";;;;"Campus IAMM 3191 route de Mende";34093;Montpellier;34172;;"04 67 16 65 65";;Hérault;Montpellier;Occitanie;76;3.8637346;43.6482448;;;;www.onisep.fr/http/redirection/etablissement/identifiant/23931
0342264B;45125756200061;"Autre établissement du supérieur";ADONIS;;"Privé hors contrat";;;;"6 rue Joffre";34000;Montpellier;34172;;"04 67 63 93 59";;Hérault;Montpellier;Occitanie;76;3.8788668;43.6067453;09/06/2018;09/06/2018;"autre JPO : 07/07/2018";www.onisep.fr/http/redirection/etablissement/identifiant/23992
0221465Y;;"Autre établissement du supérieur";"Ecole Vaucanson du CNAM";;Public;"Ministère chargé de l'Enseignement supérieur de la Recherche et de l'Innovation";;;"2 rue Camille Guérin";22440;Ploufragan;22215;;"0972 311 312";;Côtes-d'Armor;Rennes;Bretagne;53;-2.7440429;48.5108428;;;;www.onisep.fr/http/redirection/etablissement/identifiant/24116
0301749N;44451794000029;"Autre établissement du supérieur";"Pigier performance";;"Privé hors contrat";;;;"79 rue Christian Martinez";30900;Nîmes;30189;;"04 66 38 87 00";;Gard;Montpellier;Occitanie;76;4.3471676;43.8150783;;;;www.onisep.fr/http/redirection/etablissement/identifiant/24151
0642056M;;"Autre établissement du supérieur";"Académie Basque du Sport";ABS;"Privé hors contrat";;;;"Parc des sports Aguilera";64200;Biarritz;64122;;"05 59 01 00 73";;Pyrénées-Atlantiques;Bordeaux;Nouvelle-Aquitaine;75;-1.558626;43.4831519;;;;www.onisep.fr/http/redirection/etablissement/identifiant/24254
0142383P;;"Autre établissement du supérieur";"Campus de Caen de l'Institut d'études politiques de Rennes";IEP;Public;"Ministère chargé de l'Enseignement supérieur de la Recherche et de l'Innovation";;;"10 rue Pasteur";14000;Caen;14118;;"02 31 47 33 53";;Calvados;Caen;Normandie;28;-0.36766569999998;49.1841186;10/02/2018;10/02/2018;"à l'IEP de Rennes";www.onisep.fr/http/redirection/etablissement/identifiant/24296
9741555X;48170138100016;"Autre établissement du supérieur";"Université Catholique de l'Ouest";;"Privé sous contrat";;"Faculté libre de l'Ouest";;"46 boulevard de la Trinité";97400;Saint-Denis;97411;;"02 62 67 19 00";;"La Réunion";"La Réunion";"La Réunion";4;55.4676126;-20.8951512;14/03/2018;14/03/2018;;www.onisep.fr/http/redirection/etablissement/identifiant/24335
0342189V;51872913200028;"Autre établissement du supérieur";"Keyce International Academy";Keyce;"Privé hors contrat";;;;"275 route de Nîmes";34170;Castelnau-le-Lez;34057;;"04 67 99 48 10";;Hérault;Montpellier;Occitanie;76;3.8975051;43.6329827;;;;www.onisep.fr/http/redirection/etablissement/identifiant/24338
0111035R;;"Autre établissement du supérieur";"Ecole privée Avenir et ambition";;"Privé hors contrat";;;;"2 avenue Domitius - Espace soleil";11100;Narbonne;11262;;"06 98 00 49 16";;Aude;Montpellier;Occitanie;76;3.003078;43.184277;;;;www.onisep.fr/http/redirection/etablissement/identifiant/24368
0062084H;;"Autre établissement du supérieur";"École pour l'informatique et les nouvelles technologies";EPITECH;"Privé hors contrat";;;;"13 rue Saint François de Paule";6300;Nice;06088;;"01 44 08 00 26";;Alpes-Maritimes;Nice;"Provence-Alpes-Côte d'Azur";93;7.2699557;43.6959515;27/01/2018;27/01/2018;"de 10h à 17h";www.onisep.fr/http/redirection/etablissement/identifiant/24431
0597008X;;"Autre établissement du supérieur";MBway;;"Privé hors contrat";;;;"57 rue Pierre Mauroy";59000;Lille;59350;;"03 66 72 96 30";;Nord;Lille;Hauts-de-France;32;3.067454;3.067454;16/12/2017;16/12/2017;"à 10h ou 14h, le 20/01/2018 à 10h ou 14h, le 03/02/2018 à 10h ou 14h, le 31/03/2018 à 10h ou 14h, le 14/04/2018 à 10h, le 19/05/2018 à 10h et le 16/06/2018 à 10h";www.onisep.fr/http/redirection/etablissement/identifiant/24492
0753471R;;"Autre établissement du supérieur";"Association régionale du Conservatoire national des arts et métiers Nord - Pas de Calais";CNAM;Public;"Ministère chargé de l'Enseignement supérieur de la Recherche et de l'Innovation";;;"8 boulevard Louis XIV";59044;Lille;59350;Cedex;"03 20 29 86 68";;Nord;Lille;Hauts-de-France;32;3.0711955;50.6282779;10/02/2018;10/02/2018;"de 9h à 14h";www.onisep.fr/http/redirection/etablissement/identifiant/24534
0342264B;;"Autre établissement du supérieur";"Rose Carmin";;"Privé hors contrat";;;;"6 rue Joffre";34000;Montpellier;34172;;"04 67 63 93 59";;Hérault;Montpellier;Occitanie;76;3.8789735;43.6066992;09/06/2018;09/06/2018;"autre JPO : 07/07/2018";www.onisep.fr/http/redirection/etablissement/identifiant/24633
0531021X;;"Autre établissement du supérieur";"Ecole technique privée SUP OUEST";;"Privé hors contrat";;;;"67 avenue de Lattre de Tassigny";53000;Laval;53130;;"02 43 59 70 10";;Mayenne;Nantes;"Pays de la Loire";52;-0.7984638;48.0781892;09/12/2017;09/12/2017;"de 9h30 à 17h ; 27/01/2018 de 9h30 à 17h ; 16/02/2018 de 17h à 20h ; 17/03/2018 de 9h30 à 12h";www.onisep.fr/http/redirection/etablissement/identifiant/24698
0332915P;;"Autre établissement du supérieur";"Bordeaux école supérieure de la table";BEST;Consulaire;"Chambre de commerce et d'industrie";;;"10 rue René Cassin";33049;Bordeaux;33063;Cedex;"05 56 79 52 00";;Gironde;Bordeaux;Nouvelle-Aquitaine;75;-0.57459710000001;44.8763821;;;;www.onisep.fr/http/redirection/etablissement/identifiant/24803
0694044W;;"Autre établissement du supérieur";"Ecole privée des sciences informatiques";"EPSI - Grenoble";"Privé hors contrat";;;;"3 bis rue de la Condamine";38610;Gières;38179;;"04 75 09 15 72";;Isère;Grenoble;Auvergne-Rhône-Alpes;84;5.7770382;45.1878427;;;;www.onisep.fr/http/redirection/etablissement/identifiant/24836
0333278J;;"Autre établissement du supérieur";"EBBS Business School";EBBS;"Privé hors contrat";;;;"124 rue Abbé de l'épée";33000;Bordeaux;33063;;"05 57 10 38 15";;Gironde;Bordeaux;Nouvelle-Aquitaine;75;-0.5839125;44.845203;26/05/2018;26/05/2018;"autres dates : 08/12/2018, 19/01/2019";www.onisep.fr/http/redirection/etablissement/identifiant/24856
0511952V;;"Autre établissement du supérieur";"Institut supérieur de promotion industrielle";IPI;Consulaire;;;"BP 50012";"7 rue du Parlement";51000;Châlons-en-Champagne;51108;PDC1;"03 26 65 11 75";;Marne;Reims;Grand-Est;44;4.3564441;48.9567429;17/02/2018;17/02/2018;"autre date : 17/02/2018 de 9h à 15h";www.onisep.fr/http/redirection/etablissement/identifiant/24921
0342335D;;"Autre établissement du supérieur";"Institut d'Enseignement et de Formation Multimédia IEFM 3D";IEMF'3D;"Privé hors contrat";;;;"rue Louis lépine";34470;Pérols;34198;;"04 67 07 50 00";;Hérault;Montpellier;Occitanie;76;3.9466629999999;43.57576;;;;www.onisep.fr/http/redirection/etablissement/identifiant/24948
0121440A;;"Autre établissement du supérieur";"Institut de Formation par Alternance de la CCI de l'Aveyron - site de Millau";;Consulaire;;;"BP 145";"38 boulevard de l'Ayrolle";12100;Millau;12145;;"05 65 77 77 00";;Aveyron;Toulouse;Occitanie;76;3.0755195;44.0964217;;;;www.onisep.fr/http/redirection/etablissement/identifiant/24973
0691500F;;"Autre établissement du supérieur";"Faculté des Sciences de l'Institut catholique de Lyon";;"Privé reconnu";;"Institut catholique de Lyon";;"10 place des Archives";69002;Lyon;69382;;"04 72 32 51 67";02;Rhône;Lyon;Auvergne-Rhône-Alpes;84;4.826411;45.746622;;;;www.onisep.fr/http/redirection/etablissement/identifiant/25042
0673003A;;"Autre établissement du supérieur";"SUPINFO - Ecole supérieure d'informatique";SUPINFO;"Privé hors contrat";;;;"83 route du Rhin";67400;Illkirch-Graffenstaden;67218;;"01 53 35 97 00";;Bas-Rhin;Strasbourg;Grand-Est;44;7.7318;48.524073;;;;www.onisep.fr/http/redirection/etablissement/identifiant/25199
0101122R;;"Autre établissement du supérieur";"Ecole PIGIER de Troyes";;"Privé hors contrat";;;;"64 Mail des Charmilles";10000;Troyes;10387;;"03 25 83 13 00";;Aube;Reims;Grand-Est;44;4.0880709;48.3010335;;;;www.onisep.fr/http/redirection/etablissement/identifiant/25213
9741603Z;;"Autre établissement du supérieur";"École des médias de l'océan indien";;"Privé hors contrat";;;;"3 rue Gabriel de Kerveguen";97490;Saint-Denis;97411;;"02 62 97 32 00";;"La Réunion";"La Réunion";"La Réunion";4;55.497483;-20.8947059;;;;www.onisep.fr/http/redirection/etablissement/identifiant/25251
0352779F;;"Autre établissement du supérieur";MENSA;;"Privé hors contrat";;;;"227 rue de Chateaugiron";35000;Rennes;35238;;"02 99 22 77 22";;Ille-et-Vilaine;Rennes;Bretagne;53;-1.6353684000001;48.094953;;;;www.onisep.fr/http/redirection/etablissement/identifiant/25273
0442795Z;;"Autre établissement du supérieur";"IDESIA Formations";IDESIA;"Privé hors contrat";;;;"1 allée Baco";44000;Nantes;44109;;"02 28 44 25 11";;Loire-Atlantique;Nantes;"Pays de la Loire";52;-1.5476579;47.2148545;13/01/2018;13/01/2018;"de 9h à 13h";www.onisep.fr/http/redirection/etablissement/identifiant/25283
0942287A;;"Autre établissement du supérieur";SUP'INTERNET;;"Privé hors contrat";;;;"95 avenue Parmentier";75011;Paris;75111;;"01 80 51 71 36";11;Paris;Paris;Ile-de-France;11;2.3732953;48.866096;;;;www.onisep.fr/http/redirection/etablissement/identifiant/25307
0332524P;;"Autre établissement du supérieur";"INSEEC U. Real Estate";INSEEC;"Privé hors contrat";;;"CS 9104";"Hangar 18 quai de Bacalan";33070;Bordeaux;33063;;"05 56 00 73 87";;Gironde;Bordeaux;Nouvelle-Aquitaine;75;-0.55671899999993;44.858652;;;;www.onisep.fr/http/redirection/etablissement/identifiant/25370
0133924V;;"Autre établissement du supérieur";"Cours Galien";;"Privé hors contrat";;;;"257 rue Saint -Pierre";13005;Marseille;13205;;"04 95 08 40 00";05;Bouches-du-Rhône;Aix-Marseille;"Provence-Alpes-Côte d'Azur";93;5.4018387;43.2923396;;;;www.onisep.fr/http/redirection/etablissement/identifiant/25427
0511165P;;"Autre établissement du supérieur";ESUPCOM;;"Privé hors contrat";;;;"46 rue de la justice";51100;Reims;51454;;"03 26 86 64 64";;Marne;Reims;Grand-Est;44;4.0353362;49.2635121;;;;www.onisep.fr/http/redirection/etablissement/identifiant/25435
0301826X;;"Autre établissement du supérieur";"Ecole Culinaire Santé Tourisme";;"Privé hors contrat";;;;"90 allée Jacques Cartier";30320;Marguerittes;30156;;"04 66 87 97 59";;Gard;Montpellier;Occitanie;76;4.4460423;43.869209;19/06/2018;19/06/2018;"de 16h à 19h";www.onisep.fr/http/redirection/etablissement/identifiant/25463
0442721U;;"Autre établissement du supérieur";"Institut supérieur de management des entreprises";ISME;"Privé hors contrat";;;;"6 rue du Moulin de la Halvêque";44000;Nantes;44109;;"02 40 50 56 37";;Loire-Atlantique;Nantes;"Pays de la Loire";52;-1.5165021;47.2538614;02/12/2017;02/12/2017;"et 20/01/2018, 03/02/2018, 17/03/2018";www.onisep.fr/http/redirection/etablissement/identifiant/25485
0301830B;;"Autre établissement du supérieur";CREAJEUX;;"Privé hors contrat";;;;"1105 avenue Pierre Mendes France";30000;Nîmes;30189;;"04 66 35 56 20";;Gard;Montpellier;Occitanie;76;4.3852992;43.8210915;;;;www.onisep.fr/http/redirection/etablissement/identifiant/25575
0492385B;;"Autre établissement du supérieur";"IFF Europe";;"Privé hors contrat";;"Faculté libre de l'Ouest";;"2 rue de l'Esvière";49100;Angers;49007;;"02 41 87 34 20";;Maine-et-Loire;Nantes;"Pays de la Loire";52;-0.56283719999999;47.4685227;20/01/2018;20/01/2018;"de 9h30 à 17h ; 22/01/2018 14h à 17h30 ; 17/02/2018 de 9h30 à 17h";www.onisep.fr/http/redirection/etablissement/identifiant/25596
0062148C;;"Autre établissement du supérieur";"Ecole Française du Cinéma d'Audiovisuel et de Musique";"EFCAM SUD";"Privé hors contrat";;;;"Boulevard Georges Pompidou MIN des fleurs";6200;Nice;06088;;"09 72 32 05 80";;Alpes-Maritimes;Nice;"Provence-Alpes-Côte d'Azur";93;7.202397;43.666713;17/03/2018;17/03/2018;;www.onisep.fr/http/redirection/etablissement/identifiant/25693
0673094Z;;"Autre établissement du supérieur";"Cours Galien";;"Privé hors contrat";;;;"15 rue du faubourg de Saverne";67000;Strasbourg;67482;;"03 88 32 66 33";;Bas-Rhin;Strasbourg;Grand-Est;44;7.740046;48.5852666;;;;www.onisep.fr/http/redirection/etablissement/identifiant/25729
0694061P;;"Autre établissement du supérieur";"ESIMA Lyon";;"Privé hors contrat";;;;"7 rue Jean-Marie Chevant";69007;Lyon;69387;;"04 72 22 48 16";07;Rhône;Lyon;Auvergne-Rhône-Alpes;84;4.8477196741703;45.752986801944;;;;www.onisep.fr/http/redirection/etablissement/identifiant/25833
0442844C;;"Autre établissement du supérieur";"ENI Ecole informatique";ENI;"Privé reconnu";"Ministère chargé de l'Enseignement supérieur de la Recherche et de l'Innovation";;"BP 80009";"2 B rue Benjamin Franklin";44801;Saint-Herblain;44162;;"02 28 03 17 28";;Loire-Atlantique;Nantes;"Pays de la Loire";52;-1.6202634219513;47.226217274369;;;;www.onisep.fr/http/redirection/etablissement/identifiant/25873
0142321X;;"Autre établissement du supérieur";"Institut supérieur du bien-être et du tourisme - ISBT - groupe AIFCC";ISBT;Consulaire;"Chambre de commerce et d'industrie";;"BP 87195";"100 avenue Guillaume le Conquérant";14107;Lisieux;14366;Cedex;"02 31 61 19 55";;Calvados;Caen;Normandie;28;0.26095320000002;49.1434465;27/01/2018;27/01/2018;"de 10h à 16h et le 24/03/2018 de 9h à 13h";www.onisep.fr/http/redirection/etablissement/identifiant/25964
0251999M;;"Autre établissement du supérieur";"Cours Biomédal";;"Privé hors contrat";;;;"7 rue Andrey";25000;Besançon;25056;;"03 81 82 10 50";;Doubs;Besançon;Bourgogne-Franche-Comté;27;6.0165508;47.2579851;;;;www.onisep.fr/http/redirection/etablissement/identifiant/25971
0312935X;;"Autre établissement du supérieur";"Digital Campus";;"Privé hors contrat";;;"CS 87680";"30 rue des Tours";31670;Labège;31254;;"05 61 39 97 98";;Haute-Garonne;Toulouse;Occitanie;76;1.5169212000001;43.5389603;;;;www.onisep.fr/http/redirection/etablissement/identifiant/25990
0333311V;;"Autre établissement du supérieur";"Sup' de COM école supérieure de la communication";;"Privé hors contrat";;;;"114 rue Lucien Faure";33000;Bordeaux;33063;;"05 57 92 93 03";;Gironde;Bordeaux;Nouvelle-Aquitaine;75;-0.55899620000002;44.8645493;;;;www.onisep.fr/http/redirection/etablissement/identifiant/25996
0597046N;;"Autre établissement du supérieur";"Web international school (WIS)";;"Privé hors contrat";;;;"91 ruenationale";59000;Lille;59350;;"03 20 34 35 36";;Nord;Lille;Hauts-de-France;32;3.0582114;50.6347666;20/01/2018;20/01/2018;"de 9h à 13h";www.onisep.fr/http/redirection/etablissement/identifiant/26033
0573756Y;81288844400013;"Autre établissement du supérieur";"Centre artistique et technique de l'esthétique et de la coiffure";CATEC;"Privé hors contrat";;;;"23 rue de la gare";57300;Hagondange;57283;;"03 87 77 77 80";;Moselle;Nancy-Metz;Grand-Est;44;6.1680921;49.2513567;03/02/2018;03/02/2018;"de 10h00 à 17h00, autres dates : 17/03/2018, 14/04/2018 et 26/05/2018";www.onisep.fr/http/redirection/etablissement/identifiant/26067
0442865A;;"Autre établissement du supérieur";"Ecole de la filière numérique de Nantes";IMIE;"Privé hors contrat";;;;"213 route de Rennes";44700;Orvault;44114;;"02 28 01 37 54";;Loire-Atlantique;Nantes;"Pays de la Loire";52;-1.5831356;47.2609307;03/02/2018;03/02/2018;"de 10h à 16h";www.onisep.fr/http/redirection/etablissement/identifiant/26134
0451725F;"512 720 822";"Autre établissement du supérieur";"RBS ORLÉANS";;"Privé sous contrat";;;;"1 rue Royale";45000;Orléans;45234;;"09 72 54 70 42";;Loiret;Orléans-Tours;"Centre-Val de Loire";24;1.904011;47.898248;01/03/2018;01/03/2018;"de 14 h à 19 h; autres portes ouvertes : 26/04/2018 de 10 h à 19 h; 28/06/2018 de 10 h à 19 h.";www.onisep.fr/http/redirection/etablissement/identifiant/26159
0251986Y;80774198800032;"Autre établissement du supérieur";"Ecole supérieure de communication digitale";"ESCD 2089";"Privé hors contrat";;;;"46 avenue Villarceau";25000;Besançon;25056;;"03 81 40 40 89";;Doubs;Besançon;Bourgogne-Franche-Comté;27;6.0139939251312;47.239105806869;10/02/2018;10/02/2018;"également le 3 mars 2018 de 9h à 12h";www.onisep.fr/http/redirection/etablissement/identifiant/26182
0492469T;;"Autre établissement du supérieur";"My Digital School";;"Privé hors contrat";;;;"19 rue le Nôtre";49066;Angers;49007;"cedex 01";"02 41 73 20 30";;Maine-et-Loire;Nantes;"Pays de la Loire";52;-0.60687989999997;47.4755986;08/12/2018;08/12/2018;"de 9h à 13h, le 26/01/2019 de de 9h à 13h, le 02/03/2019 de 9h à 13h";www.onisep.fr/http/redirection/etablissement/identifiant/26188
0171622W;;"Autre établissement du supérieur";Excellia;;"Privé hors contrat";;;;"102 rue des Coureilles";17024;"La Rochelle";17300;"Cedex 01";"05 46 56 23 11";;Charente-Maritime;Poitiers;Nouvelle-Aquitaine;75;-1.1558874;46.1401154;;;;www.onisep.fr/http/redirection/etablissement/identifiant/26280
0171501P;;"Autre établissement du supérieur";"Institut supérieur de formation par alternance et continue";ISFAC;"Privé hors contrat";;;;"17 rue Jean Perrin";17000;"La Rochelle";17300;;"05 46 45 10 64";;Charente-Maritime;Poitiers;Nouvelle-Aquitaine;75;-1.1581879;46.1406011;;;;www.onisep.fr/http/redirection/etablissement/identifiant/26292
0062116T;;"Autre établissement du supérieur";"Euromedia Business School";;"Privé hors contrat";;;;"225 avenue de Saint-Exupéry";6210;Mandelieu-la-Napoule;06079;;"04 92 19 40 20";;Alpes-Maritimes;Nice;"Provence-Alpes-Côte d'Azur";93;6.953;43.554;;;;www.onisep.fr/http/redirection/etablissement/identifiant/26311
0912351L;;"Autre établissement du supérieur";"ENIAC Paris-Sud";ENIAC;"Privé hors contrat";;;;"5 Grande rue";91600;Savigny-sur-Orge;91589;;"09 73 67 75 50";;Essonne;Versailles;Ile-de-France;11;;;;;;www.onisep.fr/http/redirection/etablissement/identifiant/26313
0692459Y;19692459100015;"Centre de formation de fonctionnaires";"Ecole nationale supérieure des sciences de l'information et des bibliothèques";ENSSIB;Public;"Ministère chargé de l'Enseignement supérieur de la Recherche et de l'Innovation";;;"17-21 bd du 11 Novembre 1918";69623;Villeurbanne;69266;Cedex;"04 72 44 43 43";;Rhône;Lyon;Auvergne-Rhône-Alpes;84;4.867089;45.778935;;;;www.onisep.fr/http/redirection/etablissement/identifiant/1916
0753478Y;;"Centre de formation de fonctionnaires";"Ecole nationale des chartes";ENC;Public;"Ministère chargé de l'Enseignement supérieur de la Recherche et de l'Innovation";;;"65 rue de Richelieu";75002;Paris;75102;;"01 55 42 75 00";02;Paris;Paris;Ile-de-France;11;2.3374260000001;48.8673301;;;;www.onisep.fr/http/redirection/etablissement/identifiant/4337
0691861Y;;"Centre de formation de fonctionnaires";"Institut régional d'administration";IRA;Public;"Premier ministre";;"BP 72076";"Parc de l'Europe Jean Monnet";69616;Villeurbanne;69266;Cedex;"04 72 82 17 17";;Rhône;Lyon;Auvergne-Rhône-Alpes;84;4.861253;45.775009;;;;www.onisep.fr/http/redirection/etablissement/identifiant/6229
0772316Z;;"Centre de formation de fonctionnaires";"Ecole nationale supérieure de police";ENSP;Public;"Ministère de l'Intérieur";;"BP 50097";"Rue Désiré Thoison";77130;Cannes-Ecluse;77061;;"01 64 69 35 00";;Seine-et-Marne;Créteil;Ile-de-France;11;2.985326767212;48.359057697499;;;;www.onisep.fr/http/redirection/etablissement/identifiant/8660
0772493S;;"Centre de formation de fonctionnaires";"Ecole d'officiers de la gendarmerie nationale";EOGN;Public;"Ministère des Armées";;;"Avenue du 13ème dragons";77000;Melun;77288;Cedex;"01 64 14 33 00";;Seine-et-Marne;Créteil;Ile-de-France;11;2.652347;48.54523;;;;www.onisep.fr/http/redirection/etablissement/identifiant/9875
0470953F;;"Centre de formation de fonctionnaires";"Ecole nationale d'administration pénitentiaire";ENAP;Public;"Ministère de la Justice";;"CS 10028";"440 avenue Michel Serres";47916;Agen;47001;"Cedex 09";"05 53 98 98 98";;Lot-et-Garonne;Bordeaux;Nouvelle-Aquitaine;75;0.6256864;44.1850171;;;;www.onisep.fr/http/redirection/etablissement/identifiant/11230
0132123M;;"Centre de formation de fonctionnaires";"Centre de formation de conseillers d'orientation psychologues";CEFOCOP;Public;"Ministère chargé de l'Enseignement supérieur de la Recherche et de l'Innovation";"Aix-Marseille Université";;"29 avenue Robert Schuman";13621;Aix-en-Provence;13001;"Cedex 01";"0413 55 30 00";;Bouches-du-Rhône;Aix-Marseille;"Provence-Alpes-Côte d'Azur";93;5.4459813;43.5136068;;;;www.onisep.fr/http/redirection/etablissement/identifiant/12691
0342241B;;"Centre de formation de fonctionnaires";"Ecole de formation des fonctionnaires de la DGCCRF";ENCCRF;Public;"Ministère chargé de l'Économie et des Finances";;"BP 60";"45 place Ernest Granier";34935;Montpellier;34172;"Cedex 09";"04 99 52 74 00";;Hérault;Montpellier;Occitanie;76;3.9005334999999;43.6014236;;;;www.onisep.fr/http/redirection/etablissement/identifiant/14254
0421879P;;"Centre de formation de fonctionnaires";"Ecole nationale supérieure de sécurité sociale";EN3S;Public;"Ministère chargé des solidarités et de la cohésion sociale";;"CS 13132";"27 rue des Docteurs Charcot";42000;Saint-Etienne;42218;;"04 77 81 15 15";;Loire;Lyon;Auvergne-Rhône-Alpes;84;4.392718;45.419635;;;;www.onisep.fr/http/redirection/etablissement/identifiant/15691
0596802Y;;"Centre de formation de fonctionnaires";"Ecole nationale de police de Roubaix";ENP;Public;"Ministère de l'Intérieur";;"CS 60727";"117 rue Joseph Dubar";59066;Roubaix;59512;"Cedex 01";"03 20 81 71 71";;Nord;Lille;Hauts-de-France;32;3.1964952;50.670626;;;;www.onisep.fr/http/redirection/etablissement/identifiant/17753
0755222U;;"Centre de formation de fonctionnaires";"Ecole de Chaillot";;Public;"Ministère de la Culture et de la communication";;;"1 place du Trocadéro et du 11 novembre";75016;Paris;75116;;"01 58 51 52 94 / 01 58 51 52 96";16;Paris;Paris;Ile-de-France;11;2.338022;48.867873;;;;www.onisep.fr/http/redirection/etablissement/identifiant/21344
0693766U;;"Centre de formation de fonctionnaires";"Centre de formation de la police nationale";;Public;"Ministère de l'Intérieur";;"BP 55";"10 route de Lyon";69680;Chassieu;69271;Cedex;"04 72 15 22 30";;Rhône;Lyon;Auvergne-Rhône-Alpes;84;4.949968;45.740683;;;;www.onisep.fr/http/redirection/etablissement/identifiant/21675
0292309C;;"Centre de formation de fonctionnaires";"Ecole des Mousses";;Public;"Ministère des Armées";;;"Centre d'Instruction Naval";29200;Brest;29019;;"02 98 14 87 43";;Finistère;Rennes;Bretagne;53;-4.526452;48.3767913;10/03/2018;10/03/2018;"de 10h à 17h";www.onisep.fr/http/redirection/etablissement/identifiant/22718
0670188R;;"Ecole d'art";"Ecole supérieure d'art dramatique du Théâtre National de Strasbourg";"Ecole du TNS";Public;"Ministère de la Culture et de la communication";;"BP 40184";"1 avenue de la Marseillaise";67005;Strasbourg;67482;Cedex;"03 88 24 88 59";;Bas-Rhin;Strasbourg;Grand-Est;44;7.7557543;48.5856256;;;;www.onisep.fr/http/redirection/etablissement/identifiant/384
0753469N;;"Ecole d'art";"Conservatoire national supérieur d'art dramatique";CNSAD;Public;"Ministère de la Culture et de la communication";;;"2 bis rue du Conservatoire";75009;Paris;75109;;"01 42 46 12 91";09;Paris;Paris;Ile-de-France;11;2.346758;48.872606;;;;www.onisep.fr/http/redirection/etablissement/identifiant/714
0332918T;39397928100028;"Ecole d'art";"CRÉASUD - École de Condé Bordeaux";;"Privé hors contrat";;;;"59 rue de la Benauge";33100;Bordeaux;33063;;"05 57 54 02 00";;Gironde;Bordeaux;Nouvelle-Aquitaine;75;-0.5565047;44.8395002;;;;www.onisep.fr/http/redirection/etablissement/identifiant/909
0754527N;;"Ecole d'art";"Atelier Chardon Savard";;"Privé hors contrat";;;;"15 rue Gambey";75011;Paris;75111;;"01 43 14 02 22";11;Paris;Paris;Ile-de-France;11;2.371784;48.865418;;;;www.onisep.fr/http/redirection/etablissement/identifiant/1184
0741444T;;"Ecole d'art";"Ecole supérieure d'art Annecy Alpes";ESAAA;Public;"Ministère de la Culture et de la communication";;;"52 bis rue des Marquisats";74000;Annecy;74010;;"04 50 33 65 50";;Haute-Savoie;Grenoble;Auvergne-Rhône-Alpes;84;6.135666;45.89357;;;;www.onisep.fr/http/redirection/etablissement/identifiant/1547
0754597P;;"Ecole d'art";"Ecole supérieure libre d'études cinématographiques (ESEC)";ESEC;"Privé hors contrat";;;;"21 rue de Cîteaux";75012;Paris;75112;;"01 43 42 43 22";12;Paris;Paris;Ile-de-France;11;2.380611;48.847945;;;;www.onisep.fr/http/redirection/etablissement/identifiant/1702
0721039N;;"Ecole d'art";"Conservatoire d'art dramatique et de danse";;Public;"Ministère de la Culture et de la communication";;;"54 Grande Rue";72000;"Le Mans";72181;;"02 43 47 38 62";;Sarthe;Nantes;"Pays de la Loire";52;0.1967587;48.0083324;01/06/2018;30/06/2018;"date en juin à déterminer";www.onisep.fr/http/redirection/etablissement/identifiant/2064
0596390A;;"Ecole d'art";"Le Fresnoy - Studio national des arts contemporains";;Public;"Ministère de la Culture et de la communication";;"BP 80179";"22 rue du Fresnoy";59202;Tourcoing;59599;Cedex;"03 20 28 38 00";;Nord;Lille;Hauts-de-France;32;3.15506;50.7005373;14/03/2018;14/03/2018;"de 14 H 30 à 18 H";www.onisep.fr/http/redirection/etablissement/identifiant/2140
0440106B;;"Ecole d'art";"Ecole supérieure des beaux-arts de Nantes Métropole";ESBANM;Public;"Ministère de la Culture et de la communication";;;"2 rue Frida Kahlo";44200;Nantes;44109;;"02 55 58 65 00";;Loire-Atlantique;Nantes;"Pays de la Loire";52;-1.5619371306884;47.205723854456;04/11/2017;04/11/2017;"05/11/2017 ; un samedi en février (voir sur le site de l'école)";www.onisep.fr/http/redirection/etablissement/identifiant/2489
0754591H;;"Ecole d'art";"Atelier Prep'art";;"Privé hors contrat";;;;"23 passage de Ménilmontant";75011;Paris;75111;;"01 47 00 06 56";11;Paris;Paris;Ile-de-France;11;2.38301;48.865215;;;;www.onisep.fr/http/redirection/etablissement/identifiant/2623
0161159Y;;"Ecole d'art";"École des métiers du cinéma d'animation - campus Cifop";"EMCA CIFOP";Consulaire;"Chambre de commerce et d'industrie";;;"1 rue de la Charente";16000;Angoulême;16015;;"05 45 93 60 70";;Charente;Poitiers;Nouvelle-Aquitaine;75;0.1493332;45.6554551;02/02/2019;02/02/2019;"de 10h à 17h30 et le 09/03/2019 de 10h à 17h30";www.onisep.fr/http/redirection/etablissement/identifiant/2803
0310144N;;"Ecole d'art";"Institut supérieur des arts de Toulouse - département beaux-arts";ISDAT;Public;"Ministère de la Culture et de la communication";;;"5 quai de la Daurade";31000;Toulouse;31555;;"05 31 47 12 11";;Haute-Garonne;Toulouse;Occitanie;76;1.4402075;43.600088;09/03/2018;10/03/2018;"de 11h à 20h";www.onisep.fr/http/redirection/etablissement/identifiant/3092
0510085R;;"Ecole d'art";"Conservatoire à rayonnement régional de Reims";CRR;Public;"Ministère de la Culture et de la communication";;;"20 rue Gambetta";51100;Reims;51454;;"03 26 35 61 35";;Marne;Reims;Grand-Est;44;4.0380436;49.2478855;;;;www.onisep.fr/http/redirection/etablissement/identifiant/3535
0540136E;;"Ecole d'art";"Ecole nationale supérieure d'art et de design de Nancy";;Public;"Ministère de la Culture et de la communication";;;"1 place Charles Cartier-Bresson";54000;Nancy;54395;Cedex;"03 83 41 61 60";;Meurthe-et-Moselle;Nancy-Metz;Grand-Est;44;6.1728752;48.6817355;03/02/2018;03/02/2018;"de 10h00 à 19h00";www.onisep.fr/http/redirection/etablissement/identifiant/3720
0281061B;;"Ecole d'art";"Conservatoire à rayonnement départemental (musique et danse)";CRD;Public;"Ministère de la Culture et de la communication";;;"22 rue Saint-Michel";28000;Chartres;28085;;"02 37 84 04 70";;Eure-et-Loir;Orléans-Tours;"Centre-Val de Loire";24;1.489931;48.4434649;;;;www.onisep.fr/http/redirection/etablissement/identifiant/3889
0450932U;;"Ecole d'art";"Ecole supérieure d'art et de design - ESAD";ESAD;Public;"Ministère de la Culture et de la communication";;;"14 rue Dupanloup";45000;Orléans;45234;;"02 38 79 24 67";;Loiret;Orléans-Tours;"Centre-Val de Loire";24;1.910402;47.902742;02/02/2018;02/02/2018;"de 12 h à 20 h , autre porte ouverte : le 03/02/2018 de 10 h à 19 h";www.onisep.fr/http/redirection/etablissement/identifiant/4084
0754101A;33039528600017;"Ecole d'art";"Ecole de dessin technique artistique Sornas";SORNAS;"Privé hors contrat";;;;"108 rue Saint-Honoré";75001;Paris;75101;;"01 53 40 90 33";01;Paris;Paris;Ile-de-France;11;2.341527;48.861616;;;;www.onisep.fr/http/redirection/etablissement/identifiant/4334
0442065F;;"Ecole d'art";"Ecole Pivaut supérieure technique privée d'arts appliqués";;"Privé hors contrat";;;;"26 rue Henri Cochard";44000;Nantes;44109;;"02 40 29 15 92";;Loire-Atlantique;Nantes;"Pays de la Loire";52;-1.5498011;47.2234123;21/04/2018;22/04/2018;;www.onisep.fr/http/redirection/etablissement/identifiant/4583
0100744E;;"Ecole d'art";"Ecole Supérieure de Design de Troyes - une école du Groupe ESC Troyes";;"Privé hors contrat";;;"BP 40074";"13 boulevard Henri Barbusse";10901;Troyes;10387;"Cedex 09";"03 25 71 22 22";;Aube;Reims;Grand-Est;44;4.086077;48.3023116;03/02/2018;04/02/2018;"de 10h à 17h";www.onisep.fr/http/redirection/etablissement/identifiant/4892
0261363R;;"Ecole d'art";"Conservatoire à rayonnement départemental de Valence Romans sud Rhône-Alpes";CRD;Public;"Ministère de la Culture et de la communication";;;"32 avenue Georges Clemenceau";26000;Valence;26362;;"04 75 78 50 80";;Drôme;Grenoble;Auvergne-Rhône-Alpes;84;4.901364;44.93734;18/05/2019;18/05/2019;;www.onisep.fr/http/redirection/etablissement/identifiant/5031
0061933U;;"Ecole d'art";"Institut supérieur des techniques du son";ISTS;"Privé hors contrat";;;;"9 quai des deux Emmanuel";6300;Nice;06088;;"04 92 00 00 92";;Alpes-Maritimes;Nice;"Provence-Alpes-Côte d'Azur";93;7.28648859;43.6973196;01/12/2018;02/02/2019;"autres portes ouvertes le 30/03/2019";www.onisep.fr/http/redirection/etablissement/identifiant/5079
0312068E;;"Ecole d'art";"Ecole supérieure internationale de la mode";ESIMode;"Privé hors contrat";;;;"54 rue Pech";31100;Toulouse;31555;;"05 62 71 65 40";;Haute-Garonne;Toulouse;Occitanie;76;1.5107962;43.5506786;03/02/2018;03/02/2018;"de 9h à 17h, 24 mars et 26 mai 2018 de 9h à 17h";www.onisep.fr/http/redirection/etablissement/identifiant/5545
0595812X;;"Ecole d'art";"Ecole supérieure d'art du Nord Pas de Calais - Site de Dunkerque";ESA;Public;"Ministère de la Culture et de la communication";;;"5 bis rue de l'Esplanade";59140;Dunkerque;59183;;"03 28 63 72 93";;Nord;Lille;Hauts-de-France;32;2.3815791;51.0325051;02/02/2018;03/02/2018;;www.onisep.fr/http/redirection/etablissement/identifiant/5761
0672689J;;"Autre établissement du supérieur";"Centre de formation professionnelle notariale";CFPN;"Privé sous contrat";"Ministère de la Justice";;"CS 40001";"2 rue des Juifs";67080;Strasbourg;67482;Cedex;"03 88 23 40 31";;Bas-Rhin;Strasbourg;Grand-Est;44;7.7512422;48.582839;;;;www.onisep.fr/http/redirection/etablissement/identifiant/143
0596135Y;;"Autre établissement du supérieur";"IXAD Ecole des Avocats Nord-Ouest";IXAD;Public;"Ministère de la Justice";;CS10629;"1 place Déliot";59024;Lille;59350;Cedex;"03 20 90 77 32";;Nord;Lille;Hauts-de-France;32;3.0686492;50.6197142;;;;www.onisep.fr/http/redirection/etablissement/identifiant/295
0752098Y;;"Autre établissement du supérieur";"EPPREP BTS Communication";EPPREP;"Privé hors contrat";;;;"6 rue Froment";75011;Paris;75111;;"01 55 28 82 82";11;Paris;Paris;Ile-de-France;11;2.373076;48.856885;;;;www.onisep.fr/http/redirection/etablissement/identifiant/421
0061743M;;"Autre établissement du supérieur";"Ecole du journalisme";"EDJ Nice";"Privé reconnu";;;;"69 rue de Roquebillière";6300;Nice;06088;;"04 97 08 28 28";;Alpes-Maritimes;Nice;"Provence-Alpes-Côte d'Azur";93;7.2872738;43.7080882;13/01/2018;31/03/2018;;www.onisep.fr/http/redirection/etablissement/identifiant/500
0752097X;;"Autre établissement du supérieur";"Institut des métiers du notariat";IMN;"Privé reconnu";"Ministère de la Justice";;;"10 rue Traversière";75012;Paris;75112;;"01 43 46 24 09";12;Paris;Paris;Ile-de-France;11;2.370237045421;48.845112823883;;;;www.onisep.fr/http/redirection/etablissement/identifiant/707
0442519Z;;"Autre établissement du supérieur";"Ecole privée des sciences informatiques nantes - EPSI";EPSI;"Privé hors contrat";;;;"16 boulevard du général de Gaulle";44200;Nantes;44109;;"02 40 76 60 87";;Loire-Atlantique;Nantes;"Pays de la Loire";52;-1.5398964999999;47.2059073;08/12/2018;08/12/2018;"le 09/02/2019, le 09/03/2019";www.onisep.fr/http/redirection/etablissement/identifiant/997
0755108V;;"Autre établissement du supérieur";"American University of Paris";AUP;"Privé hors contrat";;;;"102 rue Saint Dominique";75007;Paris;75107;;"01 40 62 06 00";07;Paris;Paris;Ile-de-France;11;2.30408;48.858989;;;;www.onisep.fr/http/redirection/etablissement/identifiant/1193
0062070T;;"Autre établissement du supérieur";"Ecole supérieure de commerce, de communication et de gestion";ESCCOM;"Privé hors contrat";;;;"5 rue Migno";6400;Cannes;06029;;"04 93 68 42 11";;Alpes-Maritimes;Nice;"Provence-Alpes-Côte d'Azur";93;7.0218296;43.5607927;;;;www.onisep.fr/http/redirection/etablissement/identifiant/1294
0501565E;;"Autre établissement du supérieur";"FIM CCI Formation Normandie Cherbourg";;Consulaire;"Chambre de commerce et d'industrie";;"BP 84";"15 Rue des Vindits";50130;Cherbourg-en-Cotentin;50129;;"02 33 78 86 88";;Manche;Caen;Normandie;28;-1.655409;49.6315263;21/04/2018;21/04/2018;"de 10h à 17h pour le post bac";www.onisep.fr/http/redirection/etablissement/identifiant/1642
0511561V;47809825400020;"Autre établissement du supérieur";"La prépa GALIEN";;"Privé hors contrat";;;;"167 rue de Vesle";51100;Reims;51454;;"03 26 40 04 01";;Marne;Reims;Grand-Est;44;4.0239104;49.2514181;17/02/2018;17/02/2018;"de 10h à 17h ; autre date : 14/04/2018";www.onisep.fr/http/redirection/etablissement/identifiant/2028
0672737L;;"Autre établissement du supérieur";"Institut d'études judiciaires";IEJ;Public;"Ministère chargé de l'Enseignement supérieur de la Recherche et de l'Innovation";"Université de Strasbourg";"BP 66";"1 place d'Athènes";67045;Strasbourg;67482;Cedex;"03 68 85 82 06";;Bas-Rhin;Strasbourg;Grand-Est;44;7.7687201;48.5789366;;;;www.onisep.fr/http/redirection/etablissement/identifiant/2469
0380134P;;"Autre établissement du supérieur";"Institut d'études politiques (Sciences Po Grenoble)";IEP;Public;"Ministère chargé de l'Enseignement supérieur de la Recherche et de l'Innovation";"Université Grenoble Alpes";"BP 48";"1030 avenue Centrale";38040;Saint-Martin-d'Hères;38421;"Cedex 09";"04 76 82 60 00";;Isère;Grenoble;Auvergne-Rhône-Alpes;84;5.771556;45.190325;14/02/2018;14/02/2018;;www.onisep.fr/http/redirection/etablissement/identifiant/2680
0671623A;33476736500037;"Autre établissement du supérieur";"Ecole Grandjean";;"Privé hors contrat";;;;"8 rue de Londres";67000;Strasbourg;67482;;"03 88 32 76 10";;Bas-Rhin;Strasbourg;Grand-Est;44;7.770436;48.5786046;;;;www.onisep.fr/http/redirection/etablissement/identifiant/3085
0753537M;78449031000025;"Autre établissement du supérieur";"Ecole supérieure des techniques de biologie appliquée";ESTBA;"Privé sous contrat";"Ministère chargé de l'Éducation nationale";;;"56 rue Planchat";75020;Paris;75120;;"01 43 71 47 40";20;Paris;Paris;Ile-de-France;11;2.396383;48.855946;;;;www.onisep.fr/http/redirection/etablissement/identifiant/3435
0753216N;;"Autre établissement du supérieur";"Institut national des techniciens supérieurs";INTS;"Privé hors contrat";;;;"37-39 rue Saint Sébastien";75011;Paris;75111;;"01 49 29 00 23";11;Paris;Paris;Ile-de-France;11;2.371024;48.861614;08/09/2018;08/09/2018;"11h à 15h";www.onisep.fr/http/redirection/etablissement/identifiant/3607
0530959E;;"Autre établissement du supérieur";"Faculté libre de l'ouest - Laval";;"Privé sous contrat";;"Faculté libre de l'Ouest";;"25 rue du Mans";53000;Laval;53130;;"02 43 64 36 64";;Mayenne;Nantes;"Pays de la Loire";52;-0.7626462;48.0671471;15/12/2018;15/12/2018;"pour licence info-com, parcours infographie et médias interactifs, licence pro chargé de clientèle en banque assurances, chargé d'affaires bâtiment construction, et le 02/02/2019 pour toutes formations, 02/03/2019 pour licence histoire, licence info-com, parcours librairie, licence pro chargé d'affaires bâtiment";www.onisep.fr/http/redirection/etablissement/identifiant/3707
0596349F;;"Autre établissement du supérieur";"EFAP - L'école des nouveaux métiers de la communication";EFAP;"Privé hors contrat";;;"BP 145";"9-11 rue Léon Trulin";59001;Lille;59350;Cedex;"03 20 74 64 90";;Nord;Lille;Hauts-de-France;32;3.0661577;50.6381951;25/11/2017;25/11/2017;"de 10h à 17h, le 20/01/2018 de 10h à 17h, le 3/02/2018 de 10h à 17h et le 17/03/2018 de 14h à 17h, conférences de présentation du cursus à 11h et 14h30";www.onisep.fr/http/redirection/etablissement/identifiant/3956
0840077C;37835655400022;"Autre établissement du supérieur";"ÉRUDIS Formation";;"Privé hors contrat";;;;"11 avenue des Sources";84000;Avignon;84007;;"04 90 82 15 00";;Vaucluse;Aix-Marseille;"Provence-Alpes-Côte d'Azur";93;4.8137294;43.9412189;;;;www.onisep.fr/http/redirection/etablissement/identifiant/4130
0753707X;;"Autre établissement du supérieur";"Ecole de psychologues praticiens de Paris";;"Privé reconnu";"Ministère chargé de l'Enseignement supérieur de la Recherche et de l'Innovation";;;"23 rue du Montparnasse";75006;Paris;75106;;"01 53 63 81 81";06;Paris;Paris;Ile-de-France;11;2.327236;48.84414;;;;www.onisep.fr/http/redirection/etablissement/identifiant/4271
0060907D;41846523300025;"Autre établissement du supérieur";"Ecole d'esthétique cosmétique et maquillage Gontard - Elégance";;"Privé hors contrat";;;;"47 rue hôtel des postes";6000;Nice;06088;;"04 93 88 12 92";;Alpes-Maritimes;Nice;"Provence-Alpes-Côte d'Azur";93;7.2704181;43.6992102;;;;www.onisep.fr/http/redirection/etablissement/identifiant/4832
0341674K;33812781400030;"Autre établissement du supérieur";SUPEXUP;;"Privé hors contrat";;;"CS 60042";"Aéroport Montpellier Méditerranée";34137;Mauguio;34154;;"04 99 13 63 50";;Hérault;Montpellier;Occitanie;76;3.9603945;43.5806683;;;;www.onisep.fr/http/redirection/etablissement/identifiant/5093
0592608P;;"Autre établissement du supérieur";"International Business School";;"Privé reconnu";;"Institut catholique de Lille";;"83 boulevard Vauban";59000;Lille;59350;;"03 20 54 90 90";;Nord;Lille;Hauts-de-France;32;3.045694;50.631238;02/12/2017;02/12/2017;"de 10h à 17h, également le 3 février et le 27 mars. Journée d'immersion pour les terminales le 22 novembre 2017 et le 21 février 2018";www.onisep.fr/http/redirection/etablissement/identifiant/5947
0241198X;41035526700015;"Autre établissement du supérieur";"Périgueux business school Alliance européenne";;"Privé hors contrat";;;;"14 rue Bertrand du Guesclin";24000;Périgueux;24322;;"05 53 45 50 00";;Dordogne;Bordeaux;Nouvelle-Aquitaine;75;0.7187033;45.1867225;;;;www.onisep.fr/http/redirection/etablissement/identifiant/6100
0753483D;;"Autre établissement du supérieur";"Institut français du froid industriel et du génie climatique";"IFFI (CNAM)";Public;"Ministère chargé de l'Enseignement supérieur de la Recherche et de l'Innovation";"Conservatoire national des arts et métiers";;"292 rue Saint Martin";75003;Paris;75103;;"01 40 27 21 65";03;Paris;Paris;Ile-de-France;11;2.3544788;48.8670057;;;;www.onisep.fr/http/redirection/etablissement/identifiant/6159
0442276K;34811773000039;"Autre établissement du supérieur";"Institut des carrières européennes de l'expertise";ICEE;"Privé hors contrat";;;;"17 boulevard des Martyrs Nantais de la Résistance";44000;Nantes;44109;;"02 40 35 36 37";;Loire-Atlantique;Nantes;"Pays de la Loire";52;-1.5454658;47.2030202;02/12/2017;02/12/2017;"de 09h30 à 17h, et 03/02/2018, 07/04/2018 de 09h30 à 17h";www.onisep.fr/http/redirection/etablissement/identifiant/6417
0690200T;;"Autre établissement du supérieur";"Institut des métiers du notariat";IMN;"Privé reconnu";"Ministère de la Justice";;;"18 rue Chevreul";69007;Lyon;69387;;"04 78 78 70 64";07;Rhône;Lyon;Auvergne-Rhône-Alpes;84;4.842057;45.747762;;;;www.onisep.fr/http/redirection/etablissement/identifiant/6521
0922590R;;"Autre établissement du supérieur";"Ecole du nouveau journalisme";EFJ;"Privé hors contrat";;;;"114 rue Marius Aufran";92300;Levallois-Perret;92044;;"01 41 11 25 30";;Hauts-de-Seine;Versailles;Ile-de-France;11;2.279057;48.895428;;;;www.onisep.fr/http/redirection/etablissement/identifiant/6672
0131867J;;"Autre établissement du supérieur";"Ecole internationale Tunon";;"Privé hors contrat";;;;"100 rue Sainte";13007;Marseille;13207;;"04 91 54 06 53";07;Bouches-du-Rhône;Aix-Marseille;"Provence-Alpes-Côte d'Azur";93;5.3686869;43.291098;24/01/2018;24/01/2018;"Dates et horaires disponibles sur le site de l'établissement";www.onisep.fr/http/redirection/etablissement/identifiant/6890
0131196E;;"Autre établissement du supérieur";"Centre de préparation à l'administration générale Aix-Marseille - IEP";CPAG;Public;"Ministère chargé de l'Enseignement supérieur de la Recherche et de l'Innovation";;;"25 rue Gaston de Saporta";13625;Aix-en-Provence;13001;"Cedex 01";"04 42 17 01 70 et 71";;Bouches-du-Rhône;Aix-Marseille;"Provence-Alpes-Côte d'Azur";93;5.4472809;43.5311671;17/02/2018;17/02/2018;"de 10h à 16h";www.onisep.fr/http/redirection/etablissement/identifiant/7189
0660862D;45315223300012;"Autre établissement du supérieur";"Institut de développement et d'enseignement méditerranéen";IDEM;"Privé hors contrat";;;;"31/33 rue Châteaubriand";66270;"Le Soler";66195;;"04 68 92 53 84";;Pyrénées-Orientales;Montpellier;Occitanie;76;2.7920211;42.6791058;;;;www.onisep.fr/http/redirection/etablissement/identifiant/7493
0630111D;;"Autre établissement du supérieur";"Institut des métiers du notariat";IMN;"Privé reconnu";"Ministère chargé de l'Enseignement supérieur de la Recherche et de l'Innovation";;"BP 283";"Pôle tertiaire 26 av Léon Blum";63008;Clermont-Ferrand;63113;"Cedex 01";"04 73 17 77 60";;Puy-de-Dôme;Clermont-Ferrand;Auvergne-Rhône-Alpes;84;3.0963319;45.7661028;10/03/2018;10/03/2018;"à partir de 10h dans les locaux de l'Ecole de Droit, 41 boulevard François Mitterrand, 63000 CLERMONT-FERRAND";www.onisep.fr/http/redirection/etablissement/identifiant/7967
0754278T;;"Autre établissement du supérieur";"IICP Institut international de communication de Paris";IICP;"Privé hors contrat";;;;"59 rue nationale";75013;Paris;75113;;"01 53 82 57 13";13;Paris;Paris;Ile-de-France;11;2.3665593000001;48.8254416;;;;www.onisep.fr/http/redirection/etablissement/identifiant/8055
0721546P;38013367800025;"Autre établissement du supérieur";"Institut technologique européen des métiers de la musique";ITEMM;"Privé hors contrat";;;;"71 avenue Olivier Messiaen";72000;"Le Mans";72181;;"02 43 39 39 00";;Sarthe;Nantes;"Pays de la Loire";52;0.1557256;48.0152732;09/12/2017;09/12/2017;"de 10h à 16h, 17/03/2018 de 9h à 17h";www.onisep.fr/http/redirection/etablissement/identifiant/8605
0332738X;;"Autre établissement du supérieur";"ESARC ÉVOLUTION";ESARC;"Privé hors contrat";;;"CS 50100";"20 quai Lawton";33070;Bordeaux;33063;Cedex;"05 56 12 81 82";;Gironde;Bordeaux;Nouvelle-Aquitaine;75;-0.55682033862308;44.863832746781;;;;www.onisep.fr/http/redirection/etablissement/identifiant/8841
0691510S;;"Autre établissement du supérieur";"Faculté de lettres et langues";;"Privé reconnu";;"Institut catholique de Lyon";;"23 place Carnot";69002;Lyon;69382;;"04 72 32 51 27";02;Rhône;Lyon;Auvergne-Rhône-Alpes;84;4.8269596;45.7514266;10/03/2018;10/03/2018;"de 9h à 17h, et le 21/04/2018 de 9h à 13h";www.onisep.fr/http/redirection/etablissement/identifiant/9144
0755115C;;"Autre établissement du supérieur";"Institut supérieur européen de formation par l'action";"ISEFAC BACHELOR";"Privé hors contrat";;;;"27 rue Lucien Sampaix";75010;Paris;75110;;"01 47 70 85 03";10;Paris;Paris;Ile-de-France;11;2.353685;48.876764;;;;www.onisep.fr/http/redirection/etablissement/identifiant/9241
0753579H;;"Autre établissement du supérieur";"Ecole de l'expertise comptable et de l'audit";ENOES;"Privé reconnu";;;;"62 rue de Miromesnil";75008;Paris;75108;;"01 45 62 80 59";08;Paris;Paris;Ile-de-France;11;2.315725;48.875818;;;;www.onisep.fr/http/redirection/etablissement/identifiant/9243
0595952Z;;"Autre établissement du supérieur";"ISD - Institut Supérieur de Design - RUBIKA";;Consulaire;;;;"2 rue de Péclet";59300;Valenciennes;59606;Cedex;"03 61 10 12 20";;Nord;Lille;Hauts-de-France;32;3.5158837;50.3726677;10/02/2018;10/02/2018;"conférences, ateliers à partir de 10 h";www.onisep.fr/http/redirection/etablissement/identifiant/9546
0753596B;38294933700028;"Autre établissement du supérieur";ISTH;;"Privé hors contrat";;;;"28 rue des Francs Bourgeois";75003;Paris;75103;;"01 42 24 10 72";03;Paris;Paris;Ile-de-France;11;2.3604127999999;48.8581179;;;;www.onisep.fr/http/redirection/etablissement/identifiant/9898
0442566A;;"Autre établissement du supérieur";"CAP VERS";;"Privé hors contrat";;;;"4 chemin de la Chatterie";44800;Saint-Herblain;44162;;"02 40 89 95 10";;Loire-Atlantique;Nantes;"Pays de la Loire";52;-1.61742;47.2454932;09/12/2017;09/12/2017;"de 9h30 à 13h ; 20/01/2018 de 9h30 à 13h ; 10/02/2018 de 9h30 à 13h";www.onisep.fr/http/redirection/etablissement/identifiant/10181
0811182V;;"Autre établissement du supérieur";"IFCIM - Institut de formation au commerce international CCI du Tarn";IFCIM;Consulaire;"Chambre de commerce et d'industrie";;;"2 rue Cormouls Houlès";81200;Mazamet;81163;;"05 63 51 47 50";;Tarn;Toulouse;Occitanie;76;2.3752374000001;43.4900013;24/11/2018;24/11/2018;"de 9h à 17h";www.onisep.fr/http/redirection/etablissement/identifiant/10236
0693130C;;"Autre établissement du supérieur";"Institut supérieur de formation de l'enseignement catholique - Campus de l'Oratoire";"ISFEC St-Julien";"Privé sous contrat";"Ministère chargé de l'Enseignement supérieur de la Recherche et de l'Innovation";;;"2 rue de l'Oratoire";69300;Caluire-et-Cuire;69034;;"04 72 10 69 00";;Rhône;Lyon;Auvergne-Rhône-Alpes;84;4.841716;45.783742;;;;www.onisep.fr/http/redirection/etablissement/identifiant/10447
0281062C;;"Autre établissement du supérieur";"École de droit - Pôle universitaire";;Public;"Ministère chargé de l'Enseignement supérieur de la Recherche et de l'Innovation";"Université d'Orléans";;"21 rue de Loigny la Bataille";28000;Chartres;28085;;"02 37 34 42 72";;Eure-et-Loir;Orléans-Tours;"Centre-Val de Loire";24;1.48732;48.435847;;;;www.onisep.fr/http/redirection/etablissement/identifiant/10972
0341891W;;"Autre établissement du supérieur";"Cours Galien";;"Privé hors contrat";;;;"230 Place Jacques Mirouze Bât. E";34000;Montpellier;34172;;"04 67 61 95 42";;Hérault;Montpellier;Occitanie;76;3.8700747;43.6126649;;;;www.onisep.fr/http/redirection/etablissement/identifiant/11212
0133500J;39028170700013;"Autre établissement du supérieur";"Institut de Chimie Oenologie de Paris - Provence";ICOP;"Privé hors contrat";;;;"Rue de la Bastidonne";13400;Aubagne;13005;;"04 42 01 16 13";;Bouches-du-Rhône;Aix-Marseille;"Provence-Alpes-Côte d'Azur";93;5.526338;43.28789;07/03/2018;07/03/2018;"de 9 h à 13 h et de 14 h à 17 h journée les métiers de la vigne et du vin, une filière qui assure un emploi . informations, rencontre avec les étudiants et les enseignants";www.onisep.fr/http/redirection/etablissement/identifiant/11440
0692354J;;"Autre établissement du supérieur";ESTRI;;"Privé reconnu";;"Institut catholique de Lyon";;"23 place Carnot";69286;Lyon;69382;"Cedex 02";"04 72 32 50 40";02;Rhône;Lyon;Auvergne-Rhône-Alpes;84;4.8269411;45.751225;08/12/2018;08/12/2018;"et le 09/03/2018 de 9h à 17h, et le 06/04/2018 de 9h à 13h";www.onisep.fr/http/redirection/etablissement/identifiant/11846
0573594X;;"Autre établissement du supérieur";"Ecole d'Adaptation aux Professions du Soudage";EAPS;"Privé hors contrat";;;;"4 boulevard Henri Becquerel";57970;Yutz;57757;;"03 82 59 86 38";;Moselle;Nancy-Metz;Grand-Est;44;6.1734961;49.3491659;25/04/2019;25/04/2019;;www.onisep.fr/http/redirection/etablissement/identifiant/11866
0660780P;;"Autre établissement du supérieur";"Institut méditerranéen d'études et recherche en informatique et robotique";IMERIR;Consulaire;"Chambre de commerce et d'industrie";;"BP 90443";"avenue Paul Pascot";66004;Perpignan;66136;Cedex;"04 68 56 80 18";;Pyrénées-Orientales;Montpellier;Occitanie;76;2.8503628;42.6746189;;;;www.onisep.fr/http/redirection/etablissement/identifiant/11970
0341752V;45184174600014;"Autre établissement du supérieur";"Ecole supérieure des métiers de l'aéronautique";ESMA;"Privé hors contrat";;;;"aéroport Montpellier Méditerranée";34130;Mauguio;34154;;"04 67 13 75 00";;Hérault;Montpellier;Occitanie;76;3.9603945;43.5806683;;;;www.onisep.fr/http/redirection/etablissement/identifiant/12375
0133417U;;"Autre établissement du supérieur";"Institut national des transports internationaux et des ports - CNAM - Grand Port Maritime de Marseille";"ITIP CNAM";Public;"Ministère chargé de l'Enseignement supérieur de la Recherche et de l'Innovation";"Conservatoire national des arts et métiers";"BP 81965";"23 place de la Joliette";13226;Marseille;13202;"Cedex 02";"04 91 39 46 91";02;Bouches-du-Rhône;Aix-Marseille;"Provence-Alpes-Côte d'Azur";93;5.3625067;43.3121069;17/03/2018;17/03/2018;"de 10 h à 17 h";www.onisep.fr/http/redirection/etablissement/identifiant/12648
0371212S;;"Autre établissement du supérieur";"Ecole Internationale Tunon";;"Privé hors contrat";;;;"36 boulevard Heurteloup";37000;Tours;37261;;"02 47 20 53 95";;Indre-et-Loire;Orléans-Tours;"Centre-Val de Loire";24;0.695091;47.39129;11/07/2018;11/07/2018;"autres dates : 21/07/2018";www.onisep.fr/http/redirection/etablissement/identifiant/12963
0693781K;;"Autre établissement du supérieur";"Institut de science financière et d'assurances";ISFA;Public;"Ministère chargé de l'Enseignement supérieur de la Recherche et de l'Innovation";"Université Claude Bernard - Lyon 1";;"50 avenue Tony Garnier";69366;Lyon;69387;"Cedex 07";"04 37 28 74 40";07;Rhône;Lyon;Auvergne-Rhône-Alpes;84;4.827027;45.726554;;;;www.onisep.fr/http/redirection/etablissement/identifiant/13326
0922345Z;39103248900018;"Autre établissement du supérieur";"ESH Paris Hotelschool";;"Privé hors contrat";;;;"76 rue Villeneuve";92110;Clichy;92024;;"01 47 31 39 39";;Hauts-de-Seine;Versailles;Ile-de-France;11;2.310401;48.90539;;;;www.onisep.fr/http/redirection/etablissement/identifiant/13631
0331541W;38852013200019;"Autre établissement du supérieur";"Bordeaux Ynov campus";"Ynov campus";"Privé hors contrat";;;;"89 quai des Chartrons";33300;Bordeaux;33063;;"05 56 90 00 10";;Gironde;Bordeaux;Nouvelle-Aquitaine;75;-0.56606579999993;44.8540923;;;;www.onisep.fr/http/redirection/etablissement/identifiant/14186
0693402Y;;"Autre établissement du supérieur";"L'école des nouveaux métiers de la communication";EFAP;"Privé hors contrat";;;;"47 et 38 rue Henry Gorjus";69004;Lyon;69384;;"04 78 30 10 01";04;Rhône;Lyon;Auvergne-Rhône-Alpes;84;4.823592;45.779928;25/11/2017;25/11/2017;"et le 20/01/2018";www.onisep.fr/http/redirection/etablissement/identifiant/14827
0595996X;;"Autre établissement du supérieur";"Ecole supérieure privée d'application des sciences";ESPAS;"Privé reconnu";"Ministère chargé de l'Enseignement supérieur de la Recherche et de l'Innovation";"Institut catholique de Lille";;"83 boulevard Vauban";59000;Lille;59350;Cedex;"03 20 57 58 71";;Nord;Lille;Hauts-de-France;32;3.04579;50.631259;02/12/2017;02/12/2017;"de 10h à 17h, également le 3 février et le 17 mars. Journée d'immersion pour les termminales le 22 novembre 2017 et le 21 février 2018";www.onisep.fr/http/redirection/etablissement/identifiant/15023
0753619B;;"Autre établissement du supérieur";"Institut national des techniques économiques et comptables";INTEC;Public;"Ministère chargé de l'Enseignement supérieur de la Recherche et de l'Innovation";"Conservatoire national des arts et métiers";;"40 rue des Jeûneurs";75002;Paris;75102;;"01 40 27 25 38";02;Paris;Paris;Ile-de-France;11;2.343821;48.869722;;;;www.onisep.fr/http/redirection/etablissement/identifiant/15356
0753113B;;"Autre établissement du supérieur";"Centre de management hôtelier";IETH;"Privé hors contrat";;;;"52 rue Saint-Lazare";75009;Paris;75109;;"01 45 26 59 28";09;Paris;Paris;Ile-de-France;11;2.334287;48.876888;;;;www.onisep.fr/http/redirection/etablissement/identifiant/15604
0752230S;;"Autre établissement du supérieur";"Ecole supérieure des professions immobilières";ESPI;"Privé reconnu";;;;"20-22 rue du Théâtre";75015;Paris;75115;;"01 45 67 20 82";15;Paris;Paris;Ile-de-France;11;2.285833;48.849781;;;;www.onisep.fr/http/redirection/etablissement/identifiant/15605
0572645R;;"Autre établissement du supérieur";"Institut supérieur de formation de l'enseignement catholique Alsace-Lorraine";ISFEC;"Privé sous contrat";;;;"Domaine de l'Asnée - 11 rue de Laxou";54600;Villers-lès-Nancy;54578;;"03 54 95 63 03";;Meurthe-et-Moselle;Nancy-Metz;Grand-Est;44;6.145027;48.67532;;;;www.onisep.fr/http/redirection/etablissement/identifiant/15771
0753132X;;"Autre établissement du supérieur";"Ecole supérieure de publicité communication et de marketing";ESPUB;"Privé hors contrat";;;;"9 rue Léo Delibes";75116;Paris;75116;;"01 47 27 77 49";16;Paris;Paris;Ile-de-France;11;2.28855;48.866773;;;;www.onisep.fr/http/redirection/etablissement/identifiant/16176
0060790B;;"Autre établissement du supérieur";"Centre International de formation européenne - Institut européen - European Institute";"CIFE - IE- EI";"Privé hors contrat";;;;"10 avenue des Fleurs";6200;Nice;06088;;"04 93 97 93 70";;Alpes-Maritimes;Nice;"Provence-Alpes-Côte d'Azur";93;7.2547163;43.6976935;;;;www.onisep.fr/http/redirection/etablissement/identifiant/16381
0623820R;;"Autre établissement du supérieur";"Ecole privée des sciences informatiques d'Arras";"EPSI - Arras";"Privé hors contrat";;;;"23-25 rue du Dépôt";62000;Arras;62041;;"03 21 71 33 34";;Pas-de-Calais;Lille;Hauts-de-France;32;2.7793903;50.2836459;02/12/2017;02/12/2017;"et le 20 janvier 2018, le 17 février 2018";www.onisep.fr/http/redirection/etablissement/identifiant/16525
0501614H;;"Autre établissement du supérieur";"FIM CCI Formation Normandie Saint-Lô - Campus 2";;Consulaire;"Chambre de commerce et d'industrie";;"CS 56309";"170 rue Lycette Darsonval";50009;Saint-Lô;50502;Cedex;"02 33 77 86 77";;Manche;Caen;Normandie;28;-1.0828136;49.1154686;23/03/2018;23/03/2018;"de 10h à 17h et le 21/04/2018 pour le post bac";www.onisep.fr/http/redirection/etablissement/identifiant/16700
0693006T;;"Autre établissement du supérieur";"Centre d'études pédagogiques pour l'expérimentation et le conseil";CEPEC;"Privé sous contrat";"Ministère chargé de l'Enseignement supérieur de la Recherche et de l'Innovation";;"BP 47";"14 voie romaine";69290;Craponne;69069;;"04 78 44 61 61";;Rhône;Lyon;Auvergne-Rhône-Alpes;84;4.723658;45.749076;;;;www.onisep.fr/http/redirection/etablissement/identifiant/17004
0340994W;;"Autre établissement du supérieur";"IDELCA Business school";;"Privé hors contrat";;;;"4 avenue Jean Sébastien Bach";34830;Jacou;34120;;"04 67 59 49 90";;Hérault;Montpellier;Occitanie;76;3.9100452;43.6565093;;;;www.onisep.fr/http/redirection/etablissement/identifiant/17435
0133933E;;"Autre établissement du supérieur";"Ecole des avocats du Sud-Est";EDA;"Privé reconnu";;;;"61 boulevard de la Blancarde";13004;Marseille;13204;;"04 91 54 43 63";04;Bouches-du-Rhône;Aix-Marseille;"Provence-Alpes-Côte d'Azur";93;5.400277;43.3028841;;;;www.onisep.fr/http/redirection/etablissement/identifiant/17613
0753486G;;"Autre établissement du supérieur";"Ecole pratique des hautes études";EPHE;Public;"Ministère chargé de l'Enseignement supérieur de la Recherche et de l'Innovation";;;"4-14 rue Ferrus";75007;Paris;75107;;"01 53 63 61 20";07;Paris;Paris;Ile-de-France;11;2.3397964000001;48.8311143;;;;www.onisep.fr/http/redirection/etablissement/identifiant/18114
0593207R;;"Autre établissement du supérieur";"Ecole supérieure de journalisme de Lille";"ESJ Lille";"Privé reconnu";;;;"50 rue Gauthier de Châtillon";59046;Lille;59350;Cedex;"03 20 30 44 00";;Nord;Lille;Hauts-de-France;32;3.0623835;50.6300683;03/02/2018;03/02/2018;"de 9h à 13h et de 14h à 16h";www.onisep.fr/http/redirection/etablissement/identifiant/18198
0942235U;;"Autre établissement du supérieur";"Sténotype Grandjean";;"Privé hors contrat";;;;"18-20 rue Pasteur";94270;"Le Kremlin-Bicêtre";94043;;"01 42 11 10 44";;Val-de-Marne;Créteil;Ile-de-France;11;2.362638;48.81536;;;;www.onisep.fr/http/redirection/etablissement/identifiant/18607
0631810A;;"Autre établissement du supérieur";"ISFEC Auvergne - Institut supérieur de formation de l'enseignement catholique Auvergne";"ISFEC Auvergne";"Privé sous contrat";"Ministère chargé de l'Enseignement supérieur de la Recherche et de l'Innovation";;;"28 rue Bernard Brunhes";63000;Clermont-Ferrand;63113;;"04 73 98 49 60";;Puy-de-Dôme;Clermont-Ferrand;Auvergne-Rhône-Alpes;84;3.0935955;45.7884775;;;;www.onisep.fr/http/redirection/etablissement/identifiant/18855
0753516P;;"Autre établissement du supérieur";"Ecole des BTS et Institut de commerce et de gestion";ICOGES;"Privé hors contrat";;;;"9 rue Saint Lambert";75015;Paris;75115;;"01 45 58 17 33";15;Paris;Paris;Ile-de-France;11;2.290799;48.838266;;;;www.onisep.fr/http/redirection/etablissement/identifiant/19112
0292159P;;"Autre établissement du supérieur";"Institut nautique de Bretagne";INB;"Privé reconnu";;;"BP 70237";"2 rue Bayard";29182;Concarneau;29039;Cedex;"02 98 50 84 84";;Finistère;Rennes;Bretagne;53;-3.9209686;47.8700766;09/03/2018;10/03/2018;"le 9 de 17h à 20h et le 10 de 10h à 17h";www.onisep.fr/http/redirection/etablissement/identifiant/19220
0861346W;;"Autre établissement du supérieur";"Institut des métiers du notariat et centre de formation professionnelle des notaires";IMN-CFPN;"Privé reconnu";"Ministère de la Justice";;;"Avenue Thomas Edison";86960;Chasseneuil-du-Poitou;86062;;"05 49 49 42 55";;Vienne;Poitiers;Nouvelle-Aquitaine;75;0.363062;46.6690397;17/03/2018;17/03/2018;"de 9h à 12h30";www.onisep.fr/http/redirection/etablissement/identifiant/19857
0672652U;32922456200184;"Autre établissement du supérieur";"Institut supérieur de communication et de publicité";ISCOM;"Privé hors contrat";;;;"15 rue des Magasins";67000;Strasbourg;67482;;"03 88 37 59 03";;Bas-Rhin;Strasbourg;Grand-Est;44;7.7400627;48.5900101;;;;www.onisep.fr/http/redirection/etablissement/identifiant/20065
0752094U;;"Autre établissement du supérieur";"L'école des nouveaux métiers de la communication";EFAP;"Privé hors contrat";;;;"61 rue Pierre Charron";75008;Paris;75108;;"01 53 76 88 00";08;Paris;Paris;Ile-de-France;11;2.304122;48.869915;;;;www.onisep.fr/http/redirection/etablissement/identifiant/20290
0754738T;;"Autre établissement du supérieur";"Institut de gestion sociale";IGS;"Privé hors contrat";;;;"12 rue Alexandre Parodi";75010;Paris;75110;;"01 80 97 65 21";10;Paris;Paris;Ile-de-France;11;2.3656;48.879745;;;;www.onisep.fr/http/redirection/etablissement/identifiant/20330
0755096G;;"Autre établissement du supérieur";"Institut supérieur de formation au journalisme";ISFJ;"Privé reconnu";;;;"273-277 rue de Vaugirard";75015;Paris;75111;;"01 45 53 19 91";11;Paris;Paris;Ile-de-France;11;2.372073;48.858176;;;;www.onisep.fr/http/redirection/etablissement/identifiant/20727
0754947V;;"Autre établissement du supérieur";"Muséum national d'histoire naturelle";MNHN;Public;"Ministère chargé de l'Enseignement supérieur de la Recherche et de l'Innovation";;;"57 rue Cuvier";75005;Paris;75105;;"01 40 79 38 97";05;Paris;Paris;Ile-de-France;11;2.3566353;48.8439198;;;;www.onisep.fr/http/redirection/etablissement/identifiant/20793
0133795E;;"Autre établissement du supérieur";"Institut G4";;"Privé hors contrat";;;;"21 rue Marc Donadille";13013;Marseille;13213;;"08 11 69 00 00";13;Bouches-du-Rhône;Aix-Marseille;"Provence-Alpes-Côte d'Azur";93;5.4322143;43.3428401;16/12/2017;16/12/2017;"de 10 h à 18 h autres portes ouvertes : le 27/01/2018 de 10 h à 18 h, le 31/03/2018 de 10 h à 18 h";www.onisep.fr/http/redirection/etablissement/identifiant/20842
0352711G;;"Autre établissement du supérieur";"IGC Business school";;"Privé hors contrat";;;;"74 G rue de Paris";35000;Rennes;35238;;"02 23 21 07 07";;Ille-et-Vilaine;Rennes;Bretagne;53;-1.6622983;48.1130718;12/12/2017;12/12/2017;"le 13/01/2018, le 10/02/2018, le 17/03/2018, le 04/04/2018, le 11/04/2018, le 18/04/2018, le 25/04/2018 ; de 10h à 13h";www.onisep.fr/http/redirection/etablissement/identifiant/20903
